city_id,city_name,city_state,city_country,longitude,latitude,municipality_country
2803460.0,Märkischer Kreis,,DE,7.74167,51.263889,"Märkischer Kreis,DE"
2803461.0,Landkreis Hildesheim,,DE,9.965,52.126671,"Landkreis Hildesheim,DE"
2803463.0,Landkreis Aichach-Friedberg,,DE,11.05472,48.417221,"Landkreis Aichach-Friedberg,DE"
2803468.0,Zyfflich,,DE,5.96667,51.816669,"Zyfflich,DE"
2803474.0,Zwota,,DE,12.43333,50.383331,"Zwota,DE"
2803475.0,Zwoschwitz,,DE,12.1,50.51667,"Zwoschwitz,DE"
2803476.0,Zwönitz,,DE,12.8,50.633331,"Zwönitz,DE"
2803489.0,Zwochau,,DE,12.26667,51.466671,"Zwochau,DE"
2803504.0,Zwischenahnerfeld,,DE,8.0,53.183331,"Zwischenahnerfeld,DE"
2803510.0,Zwintschöna,,DE,12.04462,51.447109,"Zwintschöna,DE"
2803515.0,Zwingenberg,,DE,8.61861,49.726391,"Zwingenberg,DE"
2803519.0,Zwinge,,DE,10.38333,51.549999,"Zwinge,DE"
2803524.0,Zwietow,,DE,13.96667,51.683331,"Zwietow,DE"
2803537.0,Zwiesel,,DE,13.23333,49.01667,"Zwiesel,DE"
2803543.0,Zwiefaltendorf,,DE,9.51764,48.21484,"Zwiefaltendorf,DE"
2803545.0,Zwiefalten,,DE,9.46232,48.233959,"Zwiefalten,DE"
2803558.0,Zwickau,,DE,12.48333,50.716671,"Zwickau,DE"
2803562.0,Zwethau,,DE,13.04266,51.582619,"Zwethau,DE"
2803564.0,Zwesten,,DE,9.18333,51.049999,"Zwesten,DE"
2803573.0,Zwergen,,DE,9.3,51.48333,"Zwergen,DE"
2803577.0,Zwergau,,DE,11.96667,49.866669,"Zwergau,DE"
2803588.0,Zwenkau,,DE,12.31667,51.216671,"Zwenkau,DE"
2803604.0,Zweiflingen,,DE,9.51806,49.25639,"Zweiflingen,DE"
2803606.0,Zweifelscheid,,DE,6.25,50.033329,"Zweifelscheid,DE"
2803614.0,Zweifall,,DE,6.25,50.716671,"Zweifall,DE"
2803620.0,Zweibrücken,,DE,7.36667,49.25,"Zweibrücken,DE"
2803624.0,Zweenfurth,,DE,12.55,51.333328,"Zweenfurth,DE"
2803635.0,Zwebendorf,,DE,12.1,51.5,"Zwebendorf,DE"
2803642.0,Zuzenhausen,,DE,8.82254,49.29636,"Zuzenhausen,DE"
2803646.0,Zützschdorf,,DE,11.9,51.299999,"Zützschdorf,DE"
2803648.0,Zützen,,DE,13.63333,51.933331,"Zützen,DE"
2803650.0,Zustorf,,DE,11.93333,48.416672,"Zustorf,DE"
2803651.0,Züssow,,DE,13.54855,53.977089,"Züssow,DE"
2803654.0,Züsow,,DE,11.68333,53.916672,"Züsow,DE"
2803655.0,Zusmarshausen,,DE,10.6,48.400002,"Zusmarshausen,DE"
2803657.0,Züsedom,,DE,14.01667,53.450001,"Züsedom,DE"
2803663.0,Züschen,,DE,8.55,51.150002,"Züschen,DE"
2803664.0,Züsch,,DE,7.0,49.650002,"Züsch,DE"
2803665.0,Zusamzell,,DE,10.6,48.48333,"Zusamzell,DE"
2803667.0,Zusamaltheim,,DE,10.63562,48.53104,"Zusamaltheim,DE"
2803670.0,Zurow,,DE,11.61667,53.866669,"Zurow,DE"
2803681.0,Zürchel,,DE,13.85,51.616669,"Zürchel,DE"
2803683.0,Zürbach,,DE,7.81667,50.566669,"Zürbach,DE"
2803686.0,Zunsweier,,DE,7.94689,48.423851,"Zunsweier,DE"
2803687.0,Zunschwitz,,DE,13.16667,51.183331,"Zunschwitz,DE"
2803689.0,Zunham,,DE,12.32855,47.946758,"Zunham,DE"
2803722.0,Zultenberg,,DE,11.31667,50.049999,"Zultenberg,DE"
2803723.0,Zulpich,,DE,6.65,50.700001,"Zulpich,DE"
2803727.0,Zülow,,DE,11.27146,53.577419,"Zülow,DE"
2803729.0,Züllsdorf,,DE,13.11667,51.633331,"Züllsdorf,DE"
2803733.0,Zühr,,DE,11.0277,53.437462,"Zühr,DE"
2803737.0,Zühlsdorf,,DE,13.38761,52.73,"Zühlsdorf,DE"
2803742.0,Zühlen,,DE,12.81667,53.083328,"Zühlen,DE"
2803756.0,Zuffenhausen,,DE,9.17024,48.832241,"Zuffenhausen,DE"
2803758.0,Zudar,,DE,13.35,54.26667,"Zudar,DE"
2803760.0,Zückshut,,DE,10.92616,49.966911,"Zückshut,DE"
2803768.0,Zuckelhausen,,DE,12.45,51.299999,"Zuckelhausen,DE"
2803776.0,Zschortau,,DE,12.35893,51.479301,"Zschortau,DE"
2803781.0,Zschornewitz,,DE,12.4,51.716671,"Zschornewitz,DE"
2803786.0,Zschorlau,,DE,12.65,50.566669,"Zschorlau,DE"
2803790.0,Zschöpperitz,,DE,11.3,50.950001,"Zschöpperitz,DE"
2803792.0,Zschoppelshain,,DE,12.83333,51.0,"Zschoppelshain,DE"
2803793.0,Zschoppach,,DE,12.88333,51.216671,"Zschoppach,DE"
2803798.0,Zschopau,,DE,13.06667,50.75,"Zschopau,DE"
2803811.0,Zschiesewitz,,DE,12.41667,51.75,"Zschiesewitz,DE"
2803813.0,Zschieren,,DE,13.88333,50.98333,"Zschieren,DE"
2803818.0,Zschernitz,,DE,12.23333,51.533329,"Zschernitz,DE"
2803821.0,Zscherneddel,,DE,12.11667,51.349998,"Zscherneddel,DE"
2803823.0,Zscherndorf,,DE,12.26667,51.616669,"Zscherndorf,DE"
2803825.0,Zscherben,,DE,11.96667,51.333328,"Zscherben,DE"
2803827.0,Zschepplin,,DE,12.6,51.5,"Zschepplin,DE"
2803831.0,Zscheiplitz,,DE,11.73333,51.216671,"Zscheiplitz,DE"
2803837.0,Zschauitz,,DE,12.83333,51.033329,"Zschauitz,DE"
2803848.0,Zschadrass,,DE,12.81667,51.133331,"Zschadrass,DE"
2803857.0,Zotzenheim,,DE,7.96667,49.866669,"Zotzenheim,DE"
2803859.0,Zotzenbach,,DE,8.76667,49.603889,"Zotzenbach,DE"
2803870.0,Zossen,,DE,13.45,52.216671,"Zossen,DE"
2803874.0,Zöschingen,,DE,10.31667,48.666672,"Zöschingen,DE"
2803875.0,Zöschen,,DE,12.11667,51.349998,"Zöschen,DE"
2803877.0,Zornow,,DE,12.65183,54.193279,"Zornow,DE"
2803879.0,Zörnigall,,DE,12.75,51.866669,"Zörnigall,DE"
2803882.0,Zornheim,,DE,8.22472,49.889999,"Zornheim,DE"
2803884.0,Zorneding,,DE,11.82446,48.084332,"Zorneding,DE"
2803887.0,Zorn,,DE,7.91667,50.166672,"Zorn,DE"
2803889.0,Zorge,,DE,10.63333,51.633331,"Zorge,DE"
2803890.0,Zörbitz,,DE,12.03333,51.200001,"Zörbitz,DE"
2803891.0,Zörbig,,DE,12.11667,51.633331,"Zörbig,DE"
2803892.0,Zorbau,,DE,12.01667,51.200001,"Zorbau,DE"
2803893.0,Zopten,,DE,11.36667,50.533329,"Zopten,DE"
2803897.0,Zoppaten,,DE,11.7,50.01667,"Zoppaten,DE"
2803908.0,Zons,,DE,6.85,51.116669,"Zons,DE"
2803917.0,Zöllnitz,,DE,11.63333,50.866669,"Zöllnitz,DE"
2803923.0,Zolling,,DE,11.76667,48.450001,"Zolling,DE"
2803929.0,Zollhaus,,DE,8.06667,50.283329,"Zollhaus,DE"
2803953.0,Zölkow,,DE,11.8206,53.563251,"Zölkow,DE"
2803964.0,Zodel,,DE,15.01076,51.23914,"Zodel,DE"
2803972.0,Zöblitz,,DE,13.23333,50.650002,"Zöblitz,DE"
2803979.0,Zöberitz,,DE,12.03333,51.51667,"Zöberitz,DE"
2803983.0,Zobbenitz,,DE,11.36667,52.400002,"Zobbenitz,DE"
2803984.0,Zizishausen,,DE,9.34825,48.64119,"Zizishausen,DE"
2803994.0,Zittow,,DE,11.52766,53.677799,"Zittow,DE"
2804008.0,Zittau,,DE,14.83333,50.900002,"Zittau,DE"
2804009.0,Ziswingen,,DE,10.58704,48.78606,"Ziswingen,DE"
2804018.0,Zislow,,DE,12.3131,53.43214,"Zislow,DE"
2804022.0,Zirzow,,DE,13.2,53.583328,"Zirzow,DE"
2804034.0,Zirndorf,,DE,10.95414,49.442402,"Zirndorf,DE"
2804041.0,Zirkow,,DE,13.55,54.383331,"Zirkow,DE"
2804051.0,Zirchow,,DE,14.13333,53.883331,"Zirchow,DE"
2804073.0,Zipkeleben,,DE,11.71667,52.099998,"Zipkeleben,DE"
2804089.0,Zinzenzell,,DE,12.58333,49.083328,"Zinzenzell,DE"
2804091.0,Zintlhammer,,DE,11.91667,49.76667,"Zintlhammer,DE"
2804093.0,Zinst,,DE,11.93333,49.900002,"Zinst,DE"
2804107.0,Zinnwald-Georgenfeld,,DE,13.76553,50.73708,"Zinnwald-Georgenfeld,DE"
2804109.0,Ostseebad Zinnowitz,,DE,13.9,54.066669,"Ostseebad Zinnowitz,DE"
2804114.0,Zinndorf,,DE,13.91667,52.5,"Zinndorf,DE"
2804121.0,Zinna,,DE,12.95,51.566669,"Zinna,DE"
2804133.0,Zinhain,,DE,7.92775,50.643848,"Zinhain,DE"
2804135.0,Zingst,,DE,12.68333,54.433331,"Zingst,DE"
2804138.0,Zingsheim,,DE,6.65,50.51667,"Zingsheim,DE"
2804144.0,Zimpel,,DE,14.61667,51.333328,"Zimpel,DE"
2804154.0,Zimmersdorf,,DE,10.48333,49.166672,"Zimmersdorf,DE"
2804155.0,Zimmerschied,,DE,7.78333,50.349998,"Zimmerschied,DE"
2804157.0,Zimmern unter der Burg,,DE,8.71928,48.220531,"Zimmern unter der Burg,DE"
2804158.0,Zimmernsupra,,DE,10.86667,50.98333,"Zimmernsupra,DE"
2804159.0,Zimmern ob Rottweil,,DE,8.59436,48.166599,"Zimmern ob Rottweil,DE"
2804161.0,Zimmern,,DE,11.63333,51.0,"Zimmern,DE"
2804204.0,Zimkendorf,,DE,12.96667,54.283329,"Zimkendorf,DE"
2804207.0,Ziltendorf,,DE,14.62411,52.206081,"Ziltendorf,DE"
2804208.0,Zilshausen,,DE,7.38333,50.116669,"Zilshausen,DE"
2804210.0,Zilly,,DE,10.81667,51.950001,"Zilly,DE"
2804224.0,Zillenberg,,DE,11.06667,48.283329,"Zillenberg,DE"
2804225.0,Zillbeck,,DE,11.16667,52.383331,"Zillbeck,DE"
2804231.0,Ziggelmark,,DE,11.05,53.51667,"Ziggelmark,DE"
2804254.0,Ziethen,,DE,13.68333,53.883331,"Ziethen,DE"
2804268.0,Ziesendorf,,DE,12.03333,54.0,"Ziesendorf,DE"
2804279.0,Ziesar,,DE,12.28333,52.26667,"Ziesar,DE"
2804282.0,Zierzow,,DE,11.68333,53.283329,"Zierzow,DE"
2804283.0,Ziertheim,,DE,10.38333,48.650002,"Ziertheim,DE"
2804285.0,Zierow,,DE,11.36667,53.933331,"Zierow,DE"
2804297.0,Zierenberg,,DE,9.30164,51.36948,"Zierenberg,DE"
2804303.0,Ziepel,,DE,11.86667,52.150002,"Ziepel,DE"
2804313.0,Ziemetshausen,,DE,10.53503,48.292439,"Ziemetshausen,DE"
2804315.0,Ziemendorf,,DE,11.48333,52.916672,"Ziemendorf,DE"
2804316.0,Zielow,,DE,12.68921,53.354912,"Zielow,DE"
2804318.0,Zielitz,,DE,11.67572,52.289581,"Zielitz,DE"
2804337.0,Zieglhof,,DE,11.96754,49.06813,"Zieglhof,DE"
2804368.0,Ziegenrück,,DE,11.65,50.616669,"Ziegenrück,DE"
2804391.0,Ziegenhain,,DE,7.53333,50.683331,"Ziegenhain,DE"
2804394.0,Ziegenhagen,,DE,9.75,51.366669,"Ziegenhagen,DE"
2804399.0,Ziegendorf,,DE,11.81667,53.283329,"Ziegendorf,DE"
2804401.0,Ziegenburg,,DE,11.65,50.116669,"Ziegenburg,DE"
2804405.0,Ziegenberg,,DE,10.01667,52.033329,"Ziegenberg,DE"
2804461.0,Ziegelviehbig,,DE,14.76667,50.883331,"Ziegelviehbig,DE"
2804483.0,Ziegelrode,,DE,11.46667,51.549999,"Ziegelrode,DE"
2804524.0,Ziegelhof,,DE,7.71667,47.849998,"Ziegelhof,DE"
2804549.0,Ziegelheim,,DE,12.55,50.933331,"Ziegelheim,DE"
2804554.0,Ziegelhausen,,DE,8.74889,49.425282,"Ziegelhausen,DE"
2804560.0,Ziegelerden,,DE,11.30613,50.23172,"Ziegelerden,DE"
2804602.0,Ziegel,,DE,9.66522,50.510368,"Ziegel,DE"
2804616.0,Zickhusen,,DE,11.41394,53.758862,"Zickhusen,DE"
2804622.0,Zickeritz,,DE,11.73333,51.633331,"Zickeritz,DE"
2804628.0,Zichtau,,DE,11.3,52.599998,"Zichtau,DE"
2804630.0,Zichow,,DE,14.03847,53.18927,"Zichow,DE"
2804634.0,Zibberick,,DE,11.76667,52.366669,"Zibberick,DE"
2804642.0,Zeven,,DE,9.28333,53.299999,"Zeven,DE"
2804643.0,Zeuzleben,,DE,10.06667,49.98333,"Zeuzleben,DE"
2804646.0,Zeuthen,,DE,13.61667,52.366669,"Zeuthen,DE"
2804654.0,Zeulenroda,,DE,11.98333,50.650002,"Zeulenroda,DE"
2804664.0,Zeuchfeld,,DE,11.83333,51.23333,"Zeuchfeld,DE"
2804674.0,Zettlitz,,DE,12.83333,51.066669,"Zettlitz,DE"
2804684.0,Zettingen,,DE,7.2,50.23333,"Zettingen,DE"
2804686.0,Zettemin,,DE,12.83333,53.650002,"Zettemin,DE"
2804689.0,Zetta,,DE,13.33333,51.116669,"Zetta,DE"
2804692.0,Zethlingen,,DE,11.3,52.700001,"Zethlingen,DE"
2804697.0,Zetel,,DE,7.98333,53.416672,"Zetel,DE"
2804700.0,Zessau,,DE,11.91667,49.799999,"Zessau,DE"
2804715.0,Zerrenthin,,DE,14.08979,53.49366,"Zerrenthin,DE"
2804724.0,Zernitz,,DE,12.36667,52.883331,"Zernitz,DE"
2804727.0,Zernin,,DE,11.93333,53.799999,"Zernin,DE"
2804729.0,Zernien,,DE,10.88325,53.068451,"Zernien,DE"
2804732.0,Zernickow,,DE,14.37964,52.521858,"Zernickow,DE"
2804737.0,Zermüllen,,DE,6.91667,50.299999,"Zermüllen,DE"
2804745.0,Zerf,,DE,6.68333,49.599998,"Zerf,DE"
2804748.0,Zerbst,,DE,12.08333,51.966671,"Zerbst,DE"
2804751.0,Zeppernick,,DE,12.01667,52.116669,"Zeppernick,DE"
2804752.0,Zeppenheim,,DE,6.75771,51.3018,"Zeppenheim,DE"
2804756.0,Zepkow,,DE,12.49128,53.30175,"Zepkow,DE"
2804757.0,Zepfenhan,,DE,8.71409,48.19138,"Zepfenhan,DE"
2804759.0,Zepernick,,DE,13.54091,52.650871,"Zepernick,DE"
2804761.0,Zepelin,,DE,12.04599,53.834801,"Zepelin,DE"
2804764.0,Zenting,,DE,13.26667,48.799999,"Zenting,DE"
2804765.0,Zentendorf,,DE,15.03333,51.283329,"Zentendorf,DE"
2804766.0,Zentbechhofen,,DE,10.9,49.76667,"Zentbechhofen,DE"
2804768.0,Zens,,DE,11.71667,51.933331,"Zens,DE"
2804773.0,Zennern,,DE,9.3,51.099998,"Zennern,DE"
2804784.0,Zendscheid,,DE,6.6,50.099998,"Zendscheid,DE"
2804785.0,Zenching,,DE,12.83333,49.25,"Zenching,DE"
2804787.0,Zempin,,DE,13.96667,54.066669,"Zempin,DE"
2804788.0,Zemnick,,DE,12.85,51.866669,"Zemnick,DE"
2804790.0,Zemmin,,DE,13.2593,53.92223,"Zemmin,DE"
2804791.0,Zemmer,,DE,6.7,49.900002,"Zemmer,DE"
2804792.0,Zemitz,,DE,13.75,53.98333,"Zemitz,DE"
2804793.0,Zembschen,,DE,12.1,51.150002,"Zembschen,DE"
2804796.0,Zeltingen,,DE,7.01667,49.950001,"Zeltingen,DE"
2804803.0,Zell unter Aichelberg,,DE,9.57137,48.648819,"Zell unter Aichelberg,DE"
2804808.0,Zellingen,,DE,9.81722,49.897781,"Zellingen,DE"
2804810.0,Zell im Wiesental,,DE,7.85248,47.705551,"Zell im Wiesental,DE"
2804815.0,Mainhausen,,DE,8.98333,50.01667,"Mainhausen,DE"
2804860.0,Zellberg,,DE,10.53333,52.383331,"Zellberg,DE"
2804865.0,Zell am Main,,DE,9.86972,49.810001,"Zell am Main,DE"
2804867.0,Zella-Mehlis,,DE,10.65,50.650002,"Zella-Mehlis,DE"
2804876.0,Zella,,DE,10.11667,50.666672,"Zella,DE"
2804877.0,Zell,,DE,8.64917,49.674999,"Zell,DE"
2804880.0,Zell im Fichtelgebirge,,DE,11.82266,50.135319,"Zell im Fichtelgebirge,DE"
2804922.0,Zeitz,,DE,12.15,51.049999,"Zeitz,DE"
2804925.0,Zeitlofs,,DE,9.66667,50.26667,"Zeitlofs,DE"
2804932.0,Zeitlarn,,DE,12.4,49.333328,"Zeitlarn,DE"
2804939.0,Zeithain,,DE,13.33809,51.333561,"Zeithain,DE"
2804942.0,Zeitenbach,,DE,7.91667,50.883331,"Zeitenbach,DE"
2804951.0,Zeiskam,,DE,8.24722,49.23278,"Zeiskam,DE"
2804963.0,Zeisertsweiler,,DE,9.73333,47.583328,"Zeisertsweiler,DE"
2804979.0,Zeilsheim,,DE,8.5,50.099998,"Zeilsheim,DE"
2804993.0,Zeilern,,DE,11.92317,48.20763,"Zeilern,DE"
2805003.0,Zeilbach,,DE,9.15,50.633331,"Zeilbach,DE"
2805006.0,Zeilarn,,DE,12.83333,48.299999,"Zeilarn,DE"
2805008.0,Zeil,,DE,10.6,50.01667,"Zeil,DE"
2805028.0,Zehren,,DE,13.4,51.200001,"Zehren,DE"
2805038.0,Zehnruthenplan,,DE,13.28333,52.400002,"Zehnruthenplan,DE"
2805041.0,Zehnhausen bei Wallmerod,,DE,7.93333,50.466671,"Zehnhausen bei Wallmerod,DE"
2805042.0,Zehnhausen bei Rennerod,,DE,8.06667,50.650002,"Zehnhausen bei Rennerod,DE"
2805050.0,Zehna,,DE,12.15,53.716671,"Zehna,DE"
2805051.0,Zehmitz,,DE,12.11667,51.666672,"Zehmitz,DE"
2805053.0,Zehmigkau,,DE,12.08333,51.73333,"Zehmigkau,DE"
2805062.0,Zehlendorf,,DE,13.38778,52.783821,"Zehlendorf,DE"
2805075.0,Zehdenick,,DE,13.33165,52.978519,"Zehdenick,DE"
2805076.0,Zehbitz,,DE,12.13333,51.683331,"Zehbitz,DE"
2805086.0,Zeestow,,DE,12.95923,52.573009,"Zeestow,DE"
2805088.0,Zeesen,,DE,13.63333,52.26667,"Zeesen,DE"
2805092.0,Zedtlitz,,DE,12.51667,51.099998,"Zedtlitz,DE"
2805095.0,Zedlitz,,DE,12.03333,50.816669,"Zedlitz,DE"
2805103.0,Zeckern,,DE,10.93637,49.693951,"Zeckern,DE"
2805105.0,Zeckendorf,,DE,11.06667,49.950001,"Zeckendorf,DE"
2805106.0,Zeckenberg,,DE,11.93333,49.950001,"Zeckenberg,DE"
2805114.0,Zechlinerhütte,,DE,12.87357,53.15593,"Zechlinerhütte,DE"
2805119.0,Zechin,,DE,14.45251,52.608421,"Zechin,DE"
2805138.0,Zavelstein,,DE,8.68907,48.693958,"Zavelstein,DE"
2805169.0,Zauche,,DE,13.7,51.933331,"Zauche,DE"
2805176.0,Zaschwitz,,DE,11.81667,51.583328,"Zaschwitz,DE"
2805182.0,Zaschendorf,,DE,13.91391,51.017429,"Zaschendorf,DE"
2805193.0,Zarrentin,,DE,10.91667,53.549999,"Zarrentin,DE"
2805195.0,Zarrendorf,,DE,13.10094,54.236889,"Zarrendorf,DE"
2805198.0,Zarpen,,DE,10.51667,53.866669,"Zarpen,DE"
2805205.0,Zarnitz,,DE,13.73333,54.01667,"Zarnitz,DE"
2805208.0,Zarnewanz,,DE,12.49223,54.057831,"Zarnewanz,DE"
2805223.0,Zappendorf,,DE,11.8,51.5,"Zappendorf,DE"
2805228.0,Zapfendorf,,DE,10.93243,50.01783,"Zapfendorf,DE"
2805231.0,Zapel,,DE,11.66667,53.549999,"Zapel,DE"
2805261.0,Zangberg,,DE,12.43333,48.283329,"Zangberg,DE"
2805264.0,Zandt,,DE,12.73333,49.150002,"Zandt,DE"
2805278.0,Zaisertshofen,,DE,10.53333,48.116669,"Zaisertshofen,DE"
2805283.0,Zaisenhausen,,DE,8.81278,49.10667,"Zaisenhausen,DE"
2805297.0,Zahsow,,DE,14.26667,51.76667,"Zahsow,DE"
2805303.0,Zahrensdorf,,DE,11.66667,53.75,"Zahrensdorf,DE"
2805313.0,Zahna,,DE,12.78333,51.916672,"Zahna,DE"
2805320.0,Zahlbach,,DE,10.0,50.26667,"Zahlbach,DE"
2805329.0,Zadelsdorf,,DE,11.94081,50.666,"Zadelsdorf,DE"
2805330.0,Zadels,,DE,10.38333,47.900002,"Zadels,DE"
2805334.0,Zacking,,DE,12.31667,47.866669,"Zacking,DE"
2805346.0,Zachow,,DE,12.78333,52.48333,"Zachow,DE"
2805347.0,Zachersdorf,,DE,12.66667,49.0,"Zachersdorf,DE"
2805354.0,Zachenberg,,DE,13.0,48.966671,"Zachenberg,DE"
2805361.0,Zaberfeld,,DE,8.92694,49.05611,"Zaberfeld,DE"
2805365.0,Zabeltitz,,DE,13.5,51.349998,"Zabeltitz,DE"
2805370.0,Zabakuck,,DE,12.21667,52.450001,"Zabakuck,DE"
2805385.0,Xanten,,DE,6.45,51.666672,"Xanten,DE"
2805388.0,Wymeer,,DE,7.21667,53.133331,"Wymeer,DE"
2805396.0,Wyk auf Föhr,,DE,8.56702,54.691399,"Wyk auf Föhr,DE"
2805400.0,Wyhl,,DE,7.65,48.166672,"Wyhl,DE"
2805419.0,Wutöschingen,,DE,8.36667,47.666672,"Wutöschingen,DE"
2805448.0,Wustrow,,DE,13.15,53.48333,"Wustrow,DE"
2805463.0,Wüstheuterode,,DE,10.06667,51.316669,"Wüstheuterode,DE"
2805475.0,Wusterwitz,,DE,12.4,52.383331,"Wusterwitz,DE"
2805480.0,Wustermark,,DE,12.95,52.549999,"Wustermark,DE"
2805481.0,Wusterhusen,,DE,13.61667,54.116669,"Wusterhusen,DE"
2805483.0,Wusterhausen,,DE,12.46021,52.891201,"Wusterhausen,DE"
2805494.0,Wüstenselbitz,,DE,11.7,50.216671,"Wüstenselbitz,DE"
2805496.0,Wüstensachsen,,DE,10.00382,50.500381,"Wüstensachsen,DE"
2805497.0,Wüstenrot,,DE,9.46056,49.08083,"Wüstenrot,DE"
2805499.0,Wüstenmark,,DE,11.25,53.76667,"Wüstenmark,DE"
2805522.0,Wüstenfelde,,DE,13.14514,53.944172,"Wüstenfelde,DE"
2805548.0,Wüsten,,DE,8.78949,52.101601,"Wüsten,DE"
2805568.0,Wust,,DE,12.61667,52.416672,"Wust,DE"
2805579.0,Wuschlaub,,DE,12.13333,51.183331,"Wuschlaub,DE"
2805580.0,Wüschheim,,DE,6.81667,50.700001,"Wüschheim,DE"
2805586.0,Würzweiler,,DE,7.86667,49.650002,"Würzweiler,DE"
2805597.0,Wurzen,,DE,12.73333,51.366669,"Wurzen,DE"
2805615.0,Würzburg,,DE,9.93611,49.787781,"Würzburg,DE"
2805618.0,Würzberg,,DE,9.08111,49.652779,"Würzberg,DE"
2805623.0,Wurzbach,,DE,11.53333,50.466671,"Wurzbach,DE"
2805641.0,Wursterheide,,DE,8.63333,53.76667,"Wursterheide,DE"
2805644.0,Würselen,,DE,6.13333,50.816669,"Würselen,DE"
2805645.0,Würschwitz,,DE,12.80903,51.267391,"Würschwitz,DE"
2805649.0,Wurschen,,DE,14.58333,51.183331,"Wurschen,DE"
2805652.0,Würrich,,DE,7.3,49.98333,"Würrich,DE"
2805653.0,Wurp,,DE,12.05,51.566669,"Wurp,DE"
2805657.0,Wurmsham,,DE,12.33333,48.349998,"Wurmsham,DE"
2805666.0,Wurmlingen,,DE,8.9633,48.503639,"Wurmlingen,DE"
2805677.0,Wurmberg,,DE,8.81667,48.866669,"Wurmberg,DE"
2805694.0,Wurmannsquick,,DE,12.78333,48.349998,"Wurmannsquick,DE"
2805708.0,Würges,,DE,8.28333,50.283329,"Würges,DE"
2805722.0,Würding,,DE,13.3495,48.353909,"Würding,DE"
2805727.0,Würchwitz,,DE,12.22744,51.019051,"Würchwitz,DE"
2805728.0,Würchhausen,,DE,11.68333,51.033329,"Würchhausen,DE"
2805753.0,Wuppertal,,DE,7.18333,51.26667,"Wuppertal,DE"
2805761.0,Wunstorf,,DE,9.41667,52.433331,"Wunstorf,DE"
2805762.0,Wunsiedel,,DE,12.01667,50.033329,"Wunsiedel,DE"
2805773.0,Wünschendorf,,DE,12.1,50.799999,"Wünschendorf,DE"
2805776.0,Wunschenberg,,DE,11.95,49.900002,"Wunschenberg,DE"
2805785.0,Wünnenberg,,DE,8.7,51.51667,"Wünnenberg,DE"
2805793.0,Wundersleben,,DE,11.03333,51.150002,"Wundersleben,DE"
2805814.0,Wümbach,,DE,10.98333,50.700001,"Wümbach,DE"
2805825.0,Wulsbüttel,,DE,8.66667,53.316669,"Wulsbüttel,DE"
2805844.0,Wullenstetten,,DE,10.06667,48.316669,"Wullenstetten,DE"
2805853.0,Wulksfelde,,DE,10.11096,53.718319,"Wulksfelde,DE"
2805861.0,Wülknitz,,DE,13.4,51.366669,"Wülknitz,DE"
2805865.0,Wulkenzin,,DE,13.16667,53.533329,"Wulkenzin,DE"
2805866.0,Wulkau,,DE,12.07415,52.761021,"Wulkau,DE"
2805870.0,Wulften,,DE,10.17437,51.659988,"Wulften,DE"
2805874.0,Wulfstorf,,DE,10.52396,53.179859,"Wulfstorf,DE"
2805877.0,Wulfsmoor,,DE,9.72402,53.912331,"Wulfsmoor,DE"
2805891.0,Wulfsen,,DE,10.15,53.299999,"Wulfsen,DE"
2805895.0,Wulfsdorf,,DE,10.21667,53.666672,"Wulfsdorf,DE"
2805910.0,Wülfrath,,DE,7.05,51.283329,"Wülfrath,DE"
2805913.0,Wülfingerode,,DE,10.51667,51.400002,"Wülfingerode,DE"
2805916.0,Wulfing,,DE,12.56667,49.216671,"Wulfing,DE"
2805921.0,Wulfhagen,,DE,9.18333,52.349998,"Wulfhagen,DE"
2805923.0,Wulfeshohl,,DE,7.25,51.26667,"Wulfeshohl,DE"
2805925.0,Wulferstedt,,DE,11.13333,52.01667,"Wulferstedt,DE"
2805927.0,Wülfershausen,,DE,11.08333,50.849998,"Wülfershausen,DE"
2805933.0,Wülferode,,DE,9.85,52.333328,"Wülferode,DE"
2805945.0,Wulfen,,DE,11.93333,51.816669,"Wulfen,DE"
2805988.0,Wrohm,,DE,9.4,54.216671,"Wrohm,DE"
2805992.0,Wrixum,,DE,8.54856,54.699928,"Wrixum,DE"
2805994.0,Wrist,,DE,9.76667,53.933331,"Wrist,DE"
2805998.0,Wrisbergholzen,,DE,9.91667,52.049999,"Wrisbergholzen,DE"
2805999.0,Wriezen,,DE,14.13425,52.720909,"Wriezen,DE"
2806002.0,Wriedel,,DE,10.29848,53.0313,"Wriedel,DE"
2806004.0,Wrexen,,DE,8.99849,51.509602,"Wrexen,DE"
2806007.0,Wrestedt,,DE,10.57494,52.90435,"Wrestedt,DE"
2806010.0,Wremerbüttel,,DE,8.51667,53.650002,"Wremerbüttel,DE"
2806011.0,Wremen,,DE,8.51667,53.650002,"Wremen,DE"
2806015.0,Wredenhagen,,DE,12.5172,53.29026,"Wredenhagen,DE"
2806023.0,Wrangelsburg,,DE,13.6,54.01667,"Wrangelsburg,DE"
2806066.0,Woserin,,DE,12.00497,53.66814,"Woserin,DE"
2806070.0,Worzeldorf,,DE,11.1,49.366669,"Worzeldorf,DE"
2806072.0,Wörthsee,,DE,11.20176,48.063049,"Wörthsee,DE"
2806079.0,Wörth an der Isar,,DE,12.35,48.616669,"Wörth an der Isar,DE"
2806080.0,Wörth an der Donau,,DE,12.4,49.01667,"Wörth an der Donau,DE"
2806081.0,Wörth am Rhein,,DE,8.24861,49.05806,"Wörth am Rhein,DE"
2806082.0,Wörth am Main,,DE,9.15389,49.79472,"Wörth am Main,DE"
2806083.0,Worth,,DE,10.41667,53.466671,"Worth,DE"
2806095.0,Wortelstetten,,DE,10.75,48.583328,"Wortelstetten,DE"
2806097.0,Wört,,DE,10.27239,49.030472,"Wört,DE"
2806099.0,Wörsdorf,,DE,7.95,50.533329,"Wörsdorf,DE"
2806105.0,Wörrstadt,,DE,8.12417,49.84861,"Wörrstadt,DE"
2806108.0,Worpswede,,DE,8.93333,53.216671,"Worpswede,DE"
2806127.0,Wörnersberg,,DE,8.56667,48.566669,"Wörnersberg,DE"
2806134.0,Wormsthal,,DE,9.26667,52.25,"Wormsthal,DE"
2806135.0,Wormstedt,,DE,11.6,51.033329,"Wormstedt,DE"
2806136.0,Wormsleben,,DE,11.63333,51.51667,"Wormsleben,DE"
2806141.0,Wormsdorf,,DE,11.19335,52.133701,"Wormsdorf,DE"
2806142.0,Worms,,DE,8.35972,49.635559,"Worms,DE"
2806144.0,Wörmlitz,,DE,11.85,52.166672,"Wörmlitz,DE"
2806148.0,Wormersdorf,,DE,6.98911,50.604382,"Wormersdorf,DE"
2806149.0,Wörmersdorf,,DE,11.2,48.950001,"Wörmersdorf,DE"
2806162.0,Wörlitz,,DE,12.41667,51.833328,"Wörlitz,DE"
2806165.0,Wörleschwang,,DE,10.6,48.433331,"Wörleschwang,DE"
2806173.0,Woringen,,DE,10.2,47.916672,"Woringen,DE"
2806174.0,Worin,,DE,14.26667,52.51667,"Worin,DE"
2806176.0,Worfelden,,DE,8.54861,49.928059,"Worfelden,DE"
2806187.0,Wörbzig,,DE,11.9,51.716671,"Wörbzig,DE"
2806190.0,Worblingen,,DE,8.86667,47.73333,"Worblingen,DE"
2806192.0,Worbis,,DE,10.36667,51.416672,"Worbis,DE"
2806194.0,Woquard,,DE,7.1,53.433331,"Woquard,DE"
2806201.0,Wöpplinsberg,,DE,7.85419,48.135738,"Wöpplinsberg,DE"
2806205.0,Woppenroth,,DE,7.41667,49.866669,"Woppenroth,DE"
2806207.0,Woppenrieth,,DE,12.3,49.566669,"Woppenrieth,DE"
2806216.0,Wootz,,DE,11.35351,53.066292,"Wootz,DE"
2806231.0,Wonsheim,,DE,7.96667,49.783329,"Wonsheim,DE"
2806232.0,Wonsees,,DE,11.3,49.98333,"Wonsees,DE"
2806239.0,Wonfurt,,DE,10.46667,50.01667,"Wonfurt,DE"
2806244.0,Womrath,,DE,7.45,49.916672,"Womrath,DE"
2806251.0,Wölzow,,DE,11.12044,53.498932,"Wölzow,DE"
2806255.0,Wolzhausen,,DE,8.46667,50.866669,"Wolzhausen,DE"
2806275.0,Woltershausen,,DE,9.96667,51.966671,"Woltershausen,DE"
2806283.0,Woltersdorf,,DE,10.63333,53.583328,"Woltersdorf,DE"
2806295.0,Wolteritz,,DE,12.33333,51.450001,"Wolteritz,DE"
2806304.0,Wolsier,,DE,12.26769,52.71545,"Wolsier,DE"
2806307.0,Wolsfeld,,DE,6.46597,49.907021,"Wolsfeld,DE"
2806310.0,Wolsdorf,,DE,10.93878,52.190979,"Wolsdorf,DE"
2806320.0,Wölpinghausen,,DE,9.23333,52.416672,"Wölpinghausen,DE"
2806322.0,Wolpertswende,,DE,9.61667,47.900002,"Wolpertswende,DE"
2806323.0,Wolpertstetten,,DE,10.61667,48.666672,"Wolpertstetten,DE"
2806325.0,Wolpertshausen,,DE,9.84472,49.1675,"Wolpertshausen,DE"
2806331.0,Wölpern,,DE,12.58175,51.43914,"Wölpern,DE"
2806333.0,Wolperath,,DE,7.31667,50.833328,"Wolperath,DE"
2806339.0,Wolnzach,,DE,11.62568,48.603802,"Wolnzach,DE"
2806342.0,Wolmirstedt,,DE,11.63333,52.25,"Wolmirstedt,DE"
2806343.0,Wolmirsleben,,DE,11.48333,51.950001,"Wolmirsleben,DE"
2806345.0,Wölmersen,,DE,7.6,50.716671,"Wölmersen,DE"
2806346.0,Wolmersdorf,,DE,9.11667,54.083328,"Wolmersdorf,DE"
2806353.0,Wöllstein,,DE,7.96667,49.816669,"Wöllstein,DE"
2806358.0,Wöllsdorf,,DE,13.03333,51.133331,"Wöllsdorf,DE"
2806371.0,Wöllnau,,DE,12.70466,51.54377,"Wöllnau,DE"
2806377.0,Wollmerschied,,DE,7.85,50.116669,"Wollmerschied,DE"
2806380.0,Wollmerath,,DE,6.98333,50.150002,"Wollmerath,DE"
2806382.0,Wollmatingen,,DE,9.14595,47.692261,"Wollmatingen,DE"
2806385.0,Wollmar,,DE,8.68333,50.966671,"Wollmar,DE"
2806392.0,Wollishausen,,DE,10.70661,48.320251,"Wollishausen,DE"
2806399.0,Wollin,,DE,12.46667,52.283329,"Wollin,DE"
2806409.0,Wollersleben,,DE,10.71667,51.433331,"Wollersleben,DE"
2806414.0,Wollershausen,,DE,10.25,51.599998,"Wollershausen,DE"
2806439.0,Wollbrandshausen,,DE,10.16667,51.583328,"Wollbrandshausen,DE"
2806442.0,Wollbach,,DE,10.23333,50.366669,"Wollbach,DE"
2806451.0,Wolkshausen,,DE,9.9775,49.627499,"Wolkshausen,DE"
2806453.0,Wolkramshausen,,DE,10.75,51.416672,"Wolkramshausen,DE"
2806458.0,Wölkham,,DE,12.55,48.116669,"Wölkham,DE"
2806471.0,Wolkering,,DE,12.18573,47.879688,"Wolkering,DE"
2806474.0,Wolkenstein,,DE,13.08333,50.650002,"Wolkenstein,DE"
2806489.0,Wolken,,DE,7.46667,50.333328,"Wolken,DE"
2806501.0,Wolgast,,DE,13.76667,54.049999,"Wolgast,DE"
2806523.0,Wolfstein,,DE,7.6,49.583328,"Wolfstein,DE"
2806548.0,Wolfsmünster,,DE,9.73333,50.083328,"Wolfsmünster,DE"
2806559.0,Wolfskuhle,,DE,7.20033,51.237049,"Wolfskuhle,DE"
2806575.0,Wolfskofen,,DE,12.25,48.98333,"Wolfskofen,DE"
2806576.0,Wolfskehlen,,DE,8.50056,49.853062,"Wolfskehlen,DE"
2806596.0,Wolfsheim,,DE,8.03944,49.872219,"Wolfsheim,DE"
2806607.0,Wolfshagen,,DE,12.8425,54.22691,"Wolfshagen,DE"
2806629.0,Wolfsfelde,,DE,11.63555,52.079079,"Wolfsfelde,DE"
2806633.0,Wolfsegg,,DE,11.9781,49.107311,"Wolfsegg,DE"
2806646.0,Wolfschlugen,,DE,9.28333,48.650002,"Wolfschlugen,DE"
2806650.0,Wolfsburg-Unkeroda,,DE,10.26667,50.933331,"Wolfsburg-Unkeroda,DE"
2806654.0,Wolfsburg,,DE,10.8,52.433331,"Wolfsburg,DE"
2806674.0,Wolfsbronn,,DE,10.8,49.01667,"Wolfsbronn,DE"
2806686.0,Wolfsberg,,DE,10.36667,50.783329,"Wolfsberg,DE"
2806746.0,Wolfsbehringen,,DE,10.48333,51.0,"Wolfsbehringen,DE"
2806768.0,Wolfratshausen,,DE,11.42166,47.912891,"Wolfratshausen,DE"
2806769.0,Wolframshof,,DE,11.88333,49.833328,"Wolframshof,DE"
2806770.0,Wolframs-Eschenbach,,DE,10.73333,49.23333,"Wolframs-Eschenbach,DE"
2806775.0,Wolfmannshausen,,DE,10.46667,50.433331,"Wolfmannshausen,DE"
2806788.0,Wölfis,,DE,10.78333,50.816669,"Wölfis,DE"
2806790.0,Wölfing,,DE,11.71667,48.48333,"Wölfing,DE"
2806793.0,Wolfholz,,DE,10.5,47.849998,"Wolfholz,DE"
2806799.0,Wolfhagen,,DE,9.17015,51.326111,"Wolfhagen,DE"
2806802.0,Wolfgruben,,DE,8.53333,50.866669,"Wolfgruben,DE"
2806831.0,Wolfertschwenden,,DE,10.26667,47.883331,"Wolfertschwenden,DE"
2806846.0,Wolferstedt,,DE,11.43333,51.433331,"Wolferstedt,DE"
2806847.0,Wolferstadt,,DE,10.78333,48.916672,"Wolferstadt,DE"
2806849.0,Wolfersreut,,DE,13.48333,48.816669,"Wolfersreut,DE"
2806852.0,Wölfersheim,,DE,8.81667,50.400002,"Wölfersheim,DE"
2806855.0,Wölfershausen,,DE,9.99121,50.873692,"Wölfershausen,DE"
2806861.0,Wolfersdorf,,DE,11.16667,50.783329,"Wolfersdorf,DE"
2806872.0,Wolferschwenda,,DE,10.8,51.23333,"Wolferschwenda,DE"
2806884.0,Wolferode,,DE,11.51299,51.5065,"Wolferode,DE"
2806890.0,Wölferlingen,,DE,7.85,50.566669,"Wölferlingen,DE"
2806898.0,Wölferbütt,,DE,10.05,50.76667,"Wölferbütt,DE"
2806903.0,Wolfenweiler,,DE,7.76667,47.950001,"Wolfenweiler,DE"
2806914.0,Wolfenbüttel,,DE,10.55,52.166672,"Wolfenbüttel,DE"
2806919.0,Wolfen,,DE,12.28333,51.666672,"Wolfen,DE"
2806923.0,Wolfegg,,DE,9.79491,47.820301,"Wolfegg,DE"
2806926.0,Wolfbusch,,DE,9.10526,48.80619,"Wolfbusch,DE"
2806940.0,Wolfartsweier,,DE,8.45673,48.976501,"Wolfartsweier,DE"
2806946.0,Wolfach,,DE,8.21667,48.299999,"Wolfach,DE"
2806959.0,Woldert,,DE,7.65,50.599998,"Woldert,DE"
2806963.0,Woldegk,,DE,13.58333,53.466671,"Woldegk,DE"
2806968.0,Wolde,,DE,13.08333,53.683331,"Wolde,DE"
2806971.0,Wold,,DE,7.6,53.650002,"Wold,DE"
2806972.0,Wölchingen,,DE,9.63333,49.48333,"Wölchingen,DE"
2806979.0,Wolbeck,,DE,7.73333,51.933331,"Wolbeck,DE"
2807001.0,Wöhrden,,DE,9.0,54.166672,"Wöhrden,DE"
2807005.0,Wohra,,DE,8.95,50.933331,"Wohra,DE"
2807008.0,Wöhr,,DE,11.35864,48.35347,"Wöhr,DE"
2807010.0,Wohnste,,DE,9.53333,53.349998,"Wohnste,DE"
2807015.0,Wohnroth,,DE,7.38333,50.049999,"Wohnroth,DE"
2807020.0,Wohnbach,,DE,8.82923,50.428638,"Wohnbach,DE"
2807022.0,Wohnau,,DE,10.46667,49.966671,"Wohnau,DE"
2807023.0,Wohmbrechts,,DE,9.85,47.650002,"Wohmbrechts,DE"
2807025.0,Wohltorf,,DE,10.28333,53.51667,"Wohltorf,DE"
2807032.0,Wöhlsdorf,,DE,11.54423,50.65229,"Wöhlsdorf,DE"
2807033.0,Wohlsborn,,DE,11.36667,51.033329,"Wohlsborn,DE"
2807040.0,Wohlmuthausen,,DE,10.21667,50.583328,"Wohlmuthausen,DE"
2807042.0,Wohlmirstedt,,DE,11.46667,51.25,"Wohlmirstedt,DE"
2807046.0,Wohlgemuth,,DE,11.06667,52.683331,"Wohlgemuth,DE"
2807051.0,Wohlerst,,DE,9.4,53.416672,"Wohlerst,DE"
2807058.0,Wohlenhagen,,DE,11.25,53.933331,"Wohlenhagen,DE"
2807068.0,Wohldorf-Ohlstedt,,DE,10.13117,53.692822,"Wohldorf-Ohlstedt,DE"
2807075.0,Wohlde,,DE,9.2989,54.406139,"Wohlde,DE"
2807090.0,Wohlbach,,DE,12.31667,50.349998,"Wohlbach,DE"
2807098.0,Woggersin,,DE,13.23333,53.599998,"Woggersin,DE"
2807100.0,Woffleben,,DE,10.72025,51.558609,"Woffleben,DE"
2807106.0,Woez,,DE,11.08744,53.591381,"Woez,DE"
2807127.0,Wochenend West,,DE,13.11667,52.466671,"Wochenend West,DE"
2807136.0,Wobbenbüll,,DE,9.0,54.533329,"Wobbenbüll,DE"
2807138.0,Wöbbelin,,DE,11.5,53.400002,"Wöbbelin,DE"
2807141.0,Wixhausen,,DE,8.66111,49.93528,"Wixhausen,DE"
2807143.0,Witzwort,,DE,8.98333,54.400002,"Witzwort,DE"
2807145.0,Witzschdorf,,DE,13.08333,50.76667,"Witzschdorf,DE"
2807153.0,Witzmannsberg,,DE,13.41667,48.716671,"Witzmannsberg,DE"
2807161.0,Witzlhof,,DE,11.83333,49.466671,"Witzlhof,DE"
2807163.0,Witzleben,,DE,11.11667,50.816669,"Witzleben,DE"
2807171.0,Witzin,,DE,11.91667,53.716671,"Witzin,DE"
2807177.0,Witzhave,,DE,10.33333,53.566669,"Witzhave,DE"
2807184.0,Witzenhausen,,DE,9.86667,51.333328,"Witzenhausen,DE"
2807194.0,Witzeeze,,DE,10.61667,53.450001,"Witzeeze,DE"
2807201.0,Wittstock,,DE,12.48287,53.161179,"Wittstock,DE"
2807203.0,Wittstedt,,DE,8.66667,53.400002,"Wittstedt,DE"
2807212.0,Wittorf,,DE,9.96667,54.049999,"Wittorf,DE"
2807215.0,Wittnau,,DE,7.81667,47.950001,"Wittnau,DE"
2807218.0,Wittmund,,DE,7.78333,53.566669,"Wittmund,DE"
2807224.0,Wittmoldt,,DE,10.36667,54.166672,"Wittmoldt,DE"
2807229.0,Wittmar,,DE,10.64,52.129688,"Wittmar,DE"
2807238.0,Wittlingen,,DE,7.65,47.650002,"Wittlingen,DE"
2807240.0,Wittlich,,DE,6.88333,49.98333,"Wittlich,DE"
2807243.0,Wittland,,DE,10.08333,54.333328,"Wittland,DE"
2807245.0,Wittlaer,,DE,6.73333,51.316669,"Wittlaer,DE"
2807247.0,Wittkopsbostel,,DE,9.41667,53.200001,"Wittkopsbostel,DE"
2807254.0,Wittislingen,,DE,10.41667,48.616669,"Wittislingen,DE"
2807257.0,Wittingen,,DE,10.73613,52.72694,"Wittingen,DE"
2807263.0,Wittigenhagen,,DE,8.85,52.049999,"Wittigenhagen,DE"
2807265.0,Wittichenau,,DE,14.24403,51.38496,"Wittichenau,DE"
2807267.0,Wittibreut,,DE,12.98704,48.329208,"Wittibreut,DE"
2807275.0,Wittges,,DE,9.87319,50.587318,"Wittges,DE"
2807276.0,Wittgert,,DE,7.7,50.5,"Wittgert,DE"
2807278.0,Wittgensdorf,,DE,13.79642,50.939831,"Wittgensdorf,DE"
2807285.0,Wittgendorf,,DE,11.23333,50.599998,"Wittgendorf,DE"
2807298.0,Witterschlick,,DE,7.01667,50.700001,"Witterschlick,DE"
2807300.0,Witterda,,DE,10.88333,51.033329,"Witterda,DE"
2807301.0,Wittenwurth,,DE,9.05,54.26667,"Wittenwurth,DE"
2807304.0,Wittenweier,,DE,7.75,48.333328,"Wittenweier,DE"
2807325.0,Wittenhagen,,DE,13.07133,54.183788,"Wittenhagen,DE"
2807327.0,Wittenförden,,DE,11.32982,53.629169,"Wittenförden,DE"
2807335.0,Wittenburg,,DE,11.06667,53.51667,"Wittenburg,DE"
2807337.0,Wittenborn,,DE,10.21667,53.933331,"Wittenborn,DE"
2807340.0,Wittenbergen,,DE,9.68608,53.933449,"Wittenbergen,DE"
2807344.0,Wittenberge,,DE,11.75,53.0,"Wittenberge,DE"
2807345.0,Landkreis Wittenberg,,DE,12.80528,51.812222,"Landkreis Wittenberg,DE"
2807355.0,Wittenbeck,,DE,11.78333,54.116669,"Wittenbeck,DE"
2807363.0,Witten,,DE,7.33333,51.433331,"Witten,DE"
2807365.0,Wittelshofen,,DE,10.48333,49.066669,"Wittelshofen,DE"
2807366.0,Wittelsberg,,DE,8.85344,50.758942,"Wittelsberg,DE"
2807381.0,Wittdün,,DE,8.38935,54.626949,"Wittdün,DE"
2807388.0,Wittbek,,DE,9.2,54.466671,"Wittbek,DE"
2807395.0,Witsum,,DE,8.43887,54.699532,"Witsum,DE"
2807407.0,Wiswedel,,DE,10.86667,52.616669,"Wiswedel,DE"
2807411.0,Wistedt,,DE,9.68333,53.26667,"Wistedt,DE"
2807424.0,Wißmannsdorf,,DE,6.45,49.98333,"Wißmannsdorf,DE"
2807430.0,Wissing,,DE,12.43333,48.783329,"Wissing,DE"
2807439.0,Wissenbach,,DE,8.33333,50.783329,"Wissenbach,DE"
2807440.0,Wissen,,DE,7.75,50.783329,"Wissen,DE"
2807442.0,Wisselsrod,,DE,9.77826,50.53651,"Wisselsrod,DE"
2807446.0,Wisselsdorf,,DE,12.81667,48.666672,"Wisselsdorf,DE"
2807452.0,Wissel,,DE,6.28333,51.76667,"Wissel,DE"
2807458.0,Wisper,,DE,7.98333,50.150002,"Wisper,DE"
2807465.0,Wismar,,DE,11.46667,53.900002,"Wismar,DE"
2807471.0,Wischuer,,DE,11.7,54.099998,"Wischuer,DE"
2807474.0,Wischroda,,DE,11.55,51.166672,"Wischroda,DE"
2807484.0,Wischhafen,,DE,9.31667,53.783329,"Wischhafen,DE"
2807488.0,Wischer,,DE,11.96154,52.640461,"Wischer,DE"
2807489.0,Wischenhofen,,DE,11.91667,49.116669,"Wischenhofen,DE"
2807496.0,Wisch,,DE,10.35,54.416672,"Wisch,DE"
2807521.0,Wirtheim,,DE,9.26216,50.222832,"Wirtheim,DE"
2807525.0,Wirschweiler,,DE,7.18333,49.76667,"Wirschweiler,DE"
2807527.0,Wirscheid,,DE,7.66667,50.466671,"Wirscheid,DE"
2807528.0,Wirsberg,,DE,11.6,50.116669,"Wirsberg,DE"
2807539.0,Wirmsthal,,DE,10.06667,50.150002,"Wirmsthal,DE"
2807549.0,Wirges,,DE,7.8,50.466671,"Wirges,DE"
2807550.0,Wirfuserbach,,DE,7.2,50.216671,"Wirfuserbach,DE"
2807551.0,Wirfus,,DE,7.2,50.200001,"Wirfus,DE"
2807555.0,Wirft,,DE,6.86667,50.366669,"Wirft,DE"
2807558.0,Wirdum,,DE,7.2,53.48333,"Wirdum,DE"
2807571.0,Wirbelau,,DE,8.23333,50.450001,"Wirbelau,DE"
2807574.0,Wipshausen,,DE,10.36667,52.383331,"Wipshausen,DE"
2807577.0,Wippringsen,,DE,8.08333,51.51667,"Wippringsen,DE"
2807579.0,Wippra,,DE,11.28333,51.566669,"Wippra,DE"
2807584.0,Wippingen,,DE,7.41667,52.916672,"Wippingen,DE"
2807590.0,Wippershain,,DE,9.76667,50.833328,"Wippershain,DE"
2807591.0,Wipperoda,,DE,10.66667,50.866669,"Wipperoda,DE"
2807594.0,Wipperfürth,,DE,7.4,51.116669,"Wipperfürth,DE"
2807596.0,Wipperdorf,,DE,10.66667,51.450001,"Wipperdorf,DE"
2807618.0,Wippach,,DE,11.56667,51.25,"Wippach,DE"
2807625.0,Wipfeld,,DE,10.16667,49.916672,"Wipfeld,DE"
2807630.0,Winzlar,,DE,9.26667,52.450001,"Winzlar,DE"
2807640.0,Winzer,,DE,13.06667,48.73333,"Winzer,DE"
2807647.0,Winzenburg,,DE,9.93333,51.933331,"Winzenburg,DE"
2807648.0,Winzeln,,DE,7.56667,49.183331,"Winzeln,DE"
2807660.0,Wintrich,,DE,6.95,49.883331,"Wintrich,DE"
2807663.0,Winterwerb,,DE,7.73901,50.236389,"Winterwerb,DE"
2807673.0,Winterstettendorf,,DE,9.73758,47.98785,"Winterstettendorf,DE"
2807678.0,Winterstein,,DE,10.45,50.883331,"Winterstein,DE"
2807685.0,Winterspelt,,DE,6.21667,50.216671,"Winterspelt,DE"
2807693.0,Wintersheim,,DE,8.28028,49.77861,"Wintersheim,DE"
2807696.0,Wintersdorf,,DE,12.36667,51.049999,"Wintersdorf,DE"
2807703.0,Winterscheid,,DE,7.37397,50.81559,"Winterscheid,DE"
2807716.0,Wintersbach,,DE,9.31056,49.862499,"Wintersbach,DE"
2807718.0,Winterrieden,,DE,10.21667,48.116669,"Winterrieden,DE"
2807736.0,Winterlingen,,DE,9.11667,48.183331,"Winterlingen,DE"
2807745.0,Winterkasten,,DE,8.78222,49.707779,"Winterkasten,DE"
2807748.0,Winterhude,,DE,10.0,53.599998,"Winterhude,DE"
2807757.0,Winterhausen,,DE,10.01661,49.706829,"Winterhausen,DE"
2807765.0,Winterhalden,,DE,8.36667,48.299999,"Winterhalden,DE"
2807771.0,Winterhagen,,DE,7.28333,51.150002,"Winterhagen,DE"
2807775.0,Winterfeld,,DE,11.25,52.73333,"Winterfeld,DE"
2807778.0,Winterburg,,DE,7.65,49.866669,"Winterburg,DE"
2807783.0,Winterborn,,DE,7.86667,49.75,"Winterborn,DE"
2807788.0,Winterberg,,DE,8.53333,51.200001,"Winterberg,DE"
2807822.0,Winterbach,,DE,7.63333,49.866669,"Winterbach,DE"
2807838.0,Wintdorf,,DE,14.25,51.700001,"Wintdorf,DE"
2807844.0,Winsen,,DE,10.01667,53.833328,"Winsen,DE"
2807848.0,Winseldorf,,DE,9.60632,53.944309,"Winseldorf,DE"
2807851.0,Winringen,,DE,6.41667,50.150002,"Winringen,DE"
2807852.0,Winnweiler,,DE,7.85,49.566669,"Winnweiler,DE"
2807859.0,Winningen,,DE,7.51667,50.316669,"Winningen,DE"
2807860.0,Winning,,DE,11.61667,48.049999,"Winning,DE"
2807862.0,Winnigstedt,,DE,10.76879,52.066292,"Winnigstedt,DE"
2807864.0,Winnert,,DE,9.2,54.433331,"Winnert,DE"
2807868.0,Winnerath,,DE,6.87658,50.42886,"Winnerath,DE"
2807872.0,Winnenden,,DE,9.39819,48.875629,"Winnenden,DE"
2807874.0,Winnenberg,,DE,7.28333,49.683331,"Winnenberg,DE"
2807876.0,Winnen,,DE,8.01667,50.583328,"Winnen,DE"
2807877.0,Winnemark,,DE,9.91667,54.616669,"Winnemark,DE"
2807878.0,Winnekendonk,,DE,6.3,51.599998,"Winnekendonk,DE"
2807893.0,Winkwitz,,DE,13.46667,51.183331,"Winkwitz,DE"
2807915.0,Winklarn,,DE,12.91667,48.666672,"Winklarn,DE"
2807927.0,Winkl,,DE,12.14659,47.79644,"Winkl,DE"
2807954.0,Winkelsheide,,DE,8.08911,53.398762,"Winkelsheide,DE"
2807956.0,Winkelsett,,DE,8.53333,52.866669,"Winkelsett,DE"
2807961.0,Winkels,,DE,8.18333,50.549999,"Winkels,DE"
2807976.0,Winkeling,,DE,6.56667,51.633331,"Winkeling,DE"
2807984.0,Winkelheim,,DE,6.58333,51.0,"Winkelheim,DE"
2807985.0,Winkelhäuser,,DE,12.41667,50.533329,"Winkelhäuser,DE"
2807991.0,Winkelhaid,,DE,11.3,49.383331,"Winkelhaid,DE"
2807995.0,Winkeldorf,,DE,9.2,53.200001,"Winkeldorf,DE"
2808007.0,Winkelbach,,DE,7.73333,50.650002,"Winkelbach,DE"
2808016.0,Winkel,,DE,11.46363,51.4044,"Winkel,DE"
2808043.0,Winhöring,,DE,12.65,48.26667,"Winhöring,DE"
2808048.0,Wingst,,DE,9.08054,53.735722,"Wingst,DE"
2808067.0,Wingerode,,DE,10.23333,51.400002,"Wingerode,DE"
2808077.0,Wineden,,DE,10.41667,47.933331,"Wineden,DE"
2808101.0,Windsbach,,DE,10.82651,49.24786,"Windsbach,DE"
2808110.0,Windorf,,DE,12.78333,48.450001,"Windorf,DE"
2808143.0,Windischleuba,,DE,12.48333,51.033329,"Windischleuba,DE"
2808144.0,Windischletten,,DE,10.99319,49.99659,"Windischletten,DE"
2808145.0,Windischholzhausen,,DE,11.08333,50.950001,"Windischholzhausen,DE"
2808148.0,Windischeschenbach,,DE,12.15889,49.799721,"Windischeschenbach,DE"
2808189.0,Windhausen,,DE,10.21218,51.785439,"Windhausen,DE"
2808203.0,Windhagen,,DE,7.53333,51.049999,"Windhagen,DE"
2808206.0,Windhag,,DE,9.45,47.666672,"Windhag,DE"
2808219.0,Windesheim,,DE,7.81667,49.900002,"Windesheim,DE"
2808239.0,Winden,,DE,7.83333,50.333328,"Winden,DE"
2808251.0,Windelsbach,,DE,10.3,49.400002,"Windelsbach,DE"
2808253.0,Windehausen,,DE,10.87303,51.465771,"Windehausen,DE"
2808258.0,Windecken,,DE,8.88333,50.23333,"Windecken,DE"
2808263.0,Windeby,,DE,9.81667,54.466671,"Windeby,DE"
2808275.0,Windbergen,,DE,9.11667,54.049999,"Windbergen,DE"
2808277.0,Windberg,,DE,6.33333,51.299999,"Windberg,DE"
2808306.0,Windach,,DE,11.03333,48.066669,"Windach,DE"
2808310.0,Wincheringen,,DE,6.43333,49.616669,"Wincheringen,DE"
2808311.0,Winchen,,DE,12.81667,48.566669,"Winchen,DE"
2808315.0,Wimsheim,,DE,8.83333,48.849998,"Wimsheim,DE"
2808356.0,Wimmer,,DE,8.43333,52.333328,"Wimmer,DE"
2808359.0,Wimmelburg,,DE,11.51667,51.51667,"Wimmelburg,DE"
2808363.0,Wimm,,DE,12.86667,48.216671,"Wimm,DE"
2808390.0,Wimbach,,DE,6.91667,50.366669,"Wimbach,DE"
2808404.0,Wiltingen,,DE,6.6,49.666672,"Wiltingen,DE"
2808405.0,Wilting,,DE,12.6475,49.166779,"Wilting,DE"
2808406.0,Wilthen,,DE,14.4,51.099998,"Wilthen,DE"
2808408.0,Wilsum,,DE,6.85,52.533329,"Wilsum,DE"
2808409.0,Wilstorf,,DE,9.98333,53.450001,"Wilstorf,DE"
2808413.0,Wilster,,DE,9.37465,53.922531,"Wilster,DE"
2808417.0,Wilstedt,,DE,9.1,53.183331,"Wilstedt,DE"
2808427.0,Wilsenroth,,DE,8.01667,50.533329,"Wilsenroth,DE"
2808435.0,Wilsecker,,DE,6.58333,50.01667,"Wilsecker,DE"
2808436.0,Wilsdruff,,DE,13.53333,51.049999,"Wilsdruff,DE"
2808445.0,Wilschdorf,,DE,14.00259,51.056389,"Wilschdorf,DE"
2808461.0,Wilnsdorf,,DE,8.1,50.816669,"Wilnsdorf,DE"
2808479.0,Wilmersdorf,,DE,14.13333,52.26667,"Wilmersdorf,DE"
2808487.0,Willwerscheid,,DE,6.93333,50.033329,"Willwerscheid,DE"
2808493.0,Willstätt,,DE,7.88333,48.533329,"Willstätt,DE"
2808497.0,Willroth,,DE,7.51667,50.566669,"Willroth,DE"
2808501.0,Willprechtszell,,DE,11.0,48.533329,"Willprechtszell,DE"
2808503.0,Willofs,,DE,10.43333,47.883331,"Willofs,DE"
2808514.0,Willmering,,DE,12.66667,49.25,"Willmering,DE"
2808516.0,Willmenrod,,DE,7.96667,50.549999,"Willmenrod,DE"
2808521.0,Willmars,,DE,10.25,50.5,"Willmars,DE"
2808528.0,Willitzgrün,,DE,12.24057,50.40255,"Willitzgrün,DE"
2808533.0,Willingshausen,,DE,9.2,50.849998,"Willingshausen,DE"
2808534.0,Willingshain,,DE,9.51667,50.866669,"Willingshain,DE"
2808537.0,Willingrade,,DE,10.11667,54.033329,"Willingrade,DE"
2808544.0,Willingen,,DE,8.61667,51.299999,"Willingen,DE"
2808548.0,Willing,,DE,11.98574,47.855389,"Willing,DE"
2808559.0,Willich,,DE,6.55,51.26667,"Willich,DE"
2808571.0,Willerstedt,,DE,11.45,51.083328,"Willerstedt,DE"
2808596.0,Willenscharen,,DE,9.8,54.01667,"Willenscharen,DE"
2808598.0,Willenhofen,,DE,11.72911,49.116581,"Willenhofen,DE"
2808607.0,Willenberg,,DE,11.5,49.75,"Willenberg,DE"
2808619.0,Willebadessen,,DE,9.03694,51.625641,"Willebadessen,DE"
2808624.0,Willanzheim,,DE,10.23333,49.683331,"Willanzheim,DE"
2808639.0,Wilkenburg,,DE,9.75311,52.31142,"Wilkenburg,DE"
2808644.0,Wilkau-Haßlau,,DE,12.51667,50.666672,"Wilkau-Haßlau,DE"
2808649.0,Wilhermsdorf,,DE,10.71667,49.48333,"Wilhermsdorf,DE"
2808657.0,Wilhelmsthal,,DE,11.36667,50.299999,"Wilhelmsthal,DE"
2808674.0,Wilhelmshorst,,DE,13.06667,52.333328,"Wilhelmshorst,DE"
2808686.0,Wilhelmshöhe,,DE,8.58333,48.849998,"Wilhelmshöhe,DE"
2808720.0,Wilhelmshaven,,DE,8.13333,53.51667,"Wilhelmshaven,DE"
2808734.0,Wilhelmsfeld,,DE,8.75361,49.470558,"Wilhelmsfeld,DE"
2808739.0,Wilhelmseiche,,DE,11.61667,52.533329,"Wilhelmseiche,DE"
2808743.0,Wilhelmsdorf,,DE,11.54981,50.62965,"Wilhelmsdorf,DE"
2808748.0,Wilhelmsburg,,DE,13.86667,53.650002,"Wilhelmsburg,DE"
2808788.0,Wilgersdorf,,DE,8.14853,50.814281,"Wilgersdorf,DE"
2808792.0,Wilgartswiesen,,DE,7.88333,49.216671,"Wilgartswiesen,DE"
2808802.0,Wilferdingen,,DE,8.56667,48.950001,"Wilferdingen,DE"
2808810.0,Wildsteig,,DE,10.95,47.700001,"Wildsteig,DE"
2808829.0,Wildsachsen,,DE,8.36667,50.116669,"Wildsachsen,DE"
2808833.0,Wildpoldsried,,DE,10.4,47.76667,"Wildpoldsried,DE"
2808871.0,Wildflecken,,DE,9.91667,50.366669,"Wildflecken,DE"
2808878.0,Wildetaube,,DE,12.11667,50.716671,"Wildetaube,DE"
2808893.0,Wildeshausen,,DE,8.43333,52.900002,"Wildeshausen,DE"
2808919.0,Wildenspring,,DE,11.06667,50.599998,"Wildenspring,DE"
2808929.0,Wildenrath,,DE,6.18333,51.116669,"Wildenrath,DE"
2808936.0,Wildenholzen,,DE,11.89493,48.017429,"Wildenholzen,DE"
2808943.0,Wildenheid,,DE,11.13333,50.349998,"Wildenheid,DE"
2808947.0,Wildenhain,,DE,13.48333,51.299999,"Wildenhain,DE"
2808956.0,Wildenfels,,DE,12.61667,50.666672,"Wildenfels,DE"
2808964.0,Wildenbörten,,DE,12.28333,50.916672,"Wildenbörten,DE"
2808970.0,Wildenberg,,DE,11.91667,48.73333,"Wildenberg,DE"
2808987.0,Wildemann,,DE,10.3,51.833328,"Wildemann,DE"
2809009.0,Wildberg,,DE,13.11667,53.650002,"Wildberg,DE"
2809025.0,Bad Wildbad,,DE,8.55,48.75,"Bad Wildbad,DE"
2809033.0,Wildau,,DE,13.63333,52.316669,"Wildau,DE"
2809042.0,Wilburgstetten,,DE,10.38333,49.033329,"Wilburgstetten,DE"
2809055.0,Wigratz,,DE,9.83333,47.650002,"Wigratz,DE"
2809065.0,Wiggensbach,,DE,10.23333,47.75,"Wiggensbach,DE"
2809074.0,Wifling,,DE,11.88729,48.23362,"Wifling,DE"
2809085.0,Wietzendorf,,DE,9.98333,52.916672,"Wietzendorf,DE"
2809089.0,Wietzen,,DE,9.08333,52.716671,"Wietzen,DE"
2809092.0,Wietze,,DE,9.83333,52.650002,"Wietze,DE"
2809093.0,Wietstock,,DE,13.78333,53.716671,"Wietstock,DE"
2809100.0,Wietmarschen,,DE,7.13333,52.533329,"Wietmarschen,DE"
2809106.0,Wiethop,,DE,8.8,52.283329,"Wiethop,DE"
2809111.0,Wiethagen,,DE,12.23688,54.184738,"Wiethagen,DE"
2809119.0,Wiesweiler,,DE,7.56667,49.633331,"Wiesweiler,DE"
2809123.0,Wiesthal,,DE,9.43333,50.033329,"Wiesthal,DE"
2809134.0,Wiesmoor,,DE,7.73333,53.416672,"Wiesmoor,DE"
2809138.0,Wiesloch,,DE,8.70139,49.297779,"Wiesloch,DE"
2809151.0,Wieskau,,DE,11.93333,51.650002,"Wieskau,DE"
2809181.0,Wieseth,,DE,10.48333,49.166672,"Wieseth,DE"
2809191.0,Wiesentheid,,DE,10.35,49.799999,"Wiesentheid,DE"
2809192.0,Wiesenthau,,DE,11.13333,49.716671,"Wiesenthau,DE"
2809195.0,Wiesenthal,,DE,12.88333,51.183331,"Wiesenthal,DE"
2809201.0,Wiesentfels,,DE,11.21667,49.950001,"Wiesentfels,DE"
2809210.0,Wiesent,,DE,12.38333,49.01667,"Wiesent,DE"
2809214.0,Wiesensteig,,DE,9.6254,48.561272,"Wiesensteig,DE"
2809241.0,Wiesenfelden,,DE,12.53333,49.033329,"Wiesenfelden,DE"
2809250.0,Wiesenena,,DE,12.18333,51.450001,"Wiesenena,DE"
2809259.0,Wiesenburg,,DE,12.45,52.116669,"Wiesenburg,DE"
2809264.0,Wiesenbronn,,DE,10.3,49.75,"Wiesenbronn,DE"
2809277.0,Wiesenbach,,DE,8.80361,49.361389,"Wiesenbach,DE"
2809285.0,Wiesenau,,DE,9.73333,52.416672,"Wiesenau,DE"
2809291.0,Wiesen,,DE,9.36667,50.116669,"Wiesen,DE"
2809303.0,Wiesemscheid,,DE,6.88333,50.333328,"Wiesemscheid,DE"
2809320.0,Wieseck,,DE,8.7,50.599998,"Wieseck,DE"
2809325.0,Wiese,,DE,7.23333,50.700001,"Wiese,DE"
2809341.0,Wiesbaum,,DE,6.66667,50.333328,"Wiesbaum,DE"
2809346.0,Wiesbaden,,DE,8.25,50.083328,"Wiesbaden,DE"
2809357.0,Wiesbach,,DE,7.45,49.333328,"Wiesbach,DE"
2809362.0,Wiesau,,DE,12.18333,49.916672,"Wiesau,DE"
2809367.0,Wiesa,,DE,13.01667,50.616669,"Wiesa,DE"
2809395.0,Wiershop,,DE,10.45,53.433331,"Wiershop,DE"
2809401.0,Wiersdorf,,DE,6.45,50.0,"Wiersdorf,DE"
2809402.0,Wierschem,,DE,7.35157,50.225571,"Wierschem,DE"
2809403.0,Wiernsheim,,DE,8.85,48.883331,"Wiernsheim,DE"
2809411.0,Wierenkamp,,DE,9.96667,53.883331,"Wierenkamp,DE"
2809415.0,Wieren,,DE,10.65871,52.885288,"Wieren,DE"
2809432.0,Wiepenkathen,,DE,9.41667,53.583328,"Wiepenkathen,DE"
2809437.0,Wienrode,,DE,10.96667,51.76667,"Wienrode,DE"
2809444.0,Wienhausen,,DE,10.18862,52.580212,"Wienhausen,DE"
2809449.0,Wiendorf,,DE,12.15054,53.946491,"Wiendorf,DE"
2809463.0,Wiemerstedt,,DE,9.11667,54.26667,"Wiemerstedt,DE"
2809466.0,Wiemerskamp,,DE,10.1551,53.73737,"Wiemerskamp,DE"
2809468.0,Wiemersdorf,,DE,9.90297,53.958149,"Wiemersdorf,DE"
2809471.0,Wiemeringhausen,,DE,8.5,51.299999,"Wiemeringhausen,DE"
2809482.0,Wielpütz,,DE,6.55,50.583328,"Wielpütz,DE"
2809483.0,Wieling,,DE,11.26648,47.954521,"Wieling,DE"
2809489.0,Wielenbach,,DE,11.15,47.866669,"Wielenbach,DE"
2809491.0,Wielen,,DE,6.71667,52.549999,"Wielen,DE"
2809509.0,Wiek,,DE,13.28333,54.616669,"Wiek,DE"
2809510.0,Wiehre,,DE,7.86667,47.98333,"Wiehre,DE"
2809517.0,Wiehl,,DE,7.53333,50.950001,"Wiehl,DE"
2809524.0,Wiehe,,DE,11.41667,51.26667,"Wiehe,DE"
2809535.0,Wieglitz,,DE,11.32347,52.35799,"Wieglitz,DE"
2809536.0,Wiegleben,,DE,10.63333,51.049999,"Wiegleben,DE"
2809537.0,Wiegersen,,DE,9.55,53.383331,"Wiegersen,DE"
2809539.0,Wiegendorf,,DE,11.43333,50.98333,"Wiegendorf,DE"
2809544.0,Wiefelstede,,DE,8.11667,53.25,"Wiefelstede,DE"
2809550.0,Wiednitz,,DE,14.03333,51.400002,"Wiednitz,DE"
2809567.0,Wiederstedt,,DE,11.53333,51.666672,"Wiederstedt,DE"
2809578.0,Wiedergeltingen,,DE,10.66667,48.033329,"Wiedergeltingen,DE"
2809580.0,Wiederau,,DE,13.31783,51.631119,"Wiederau,DE"
2809583.0,Wiedenzhausen,,DE,11.23333,48.299999,"Wiedenzhausen,DE"
2809587.0,Wiedensahl,,DE,9.11667,52.383331,"Wiedensahl,DE"
2809606.0,Wiedenbrück,,DE,8.31667,51.833328,"Wiedenbrück,DE"
2809615.0,Wieden,,DE,7.11667,51.150002,"Wieden,DE"
2809628.0,Wiedemar,,DE,12.2,51.466671,"Wiedemar,DE"
2809630.0,Wiedelah,,DE,10.58333,51.966671,"Wiedelah,DE"
2809645.0,Wieda,,DE,10.58704,51.633999,"Wieda,DE"
2809655.0,Wiechs am Randen,,DE,8.63333,47.783329,"Wiechs am Randen,DE"
2809670.0,Wieblitz-Eversdorf,,DE,11.06667,52.816669,"Wieblitz-Eversdorf,DE"
2809671.0,Wieblingen,,DE,8.64722,49.42556,"Wieblingen,DE"
2809672.0,Wiebendorf,,DE,10.81667,53.400002,"Wiebendorf,DE"
2809673.0,Wiebelskirchen,,DE,7.18333,49.366669,"Wiebelskirchen,DE"
2809675.0,Wiebelsheim,,DE,7.63333,50.083328,"Wiebelsheim,DE"
2809677.0,Wiebelsdorf,,DE,11.94952,50.715752,"Wiebelsdorf,DE"
2809678.0,Wiebelsberg,,DE,10.38333,49.73333,"Wiebelsberg,DE"
2809681.0,Wiebelsbach,,DE,8.94167,49.82333,"Wiebelsbach,DE"
2809715.0,Widdersberg,,DE,11.2,48.01667,"Widdersberg,DE"
2809718.0,Widdern,,DE,9.42194,49.319439,"Widdern,DE"
2809726.0,Widdau,,DE,6.3,50.549999,"Widdau,DE"
2809728.0,Wickstadt,,DE,8.85,50.299999,"Wickstadt,DE"
2809731.0,Wickrathberg,,DE,6.41584,51.11311,"Wickrathberg,DE"
2809741.0,Wickerstedt,,DE,11.55,51.066669,"Wickerstedt,DE"
2809753.0,Wickerode,,DE,11.13181,51.476139,"Wickerode,DE"
2809757.0,Wicker,,DE,8.4,50.033329,"Wicker,DE"
2809762.0,Wickenrodt,,DE,7.35,49.816669,"Wickenrodt,DE"
2809770.0,Wickendorf,,DE,11.38333,50.383331,"Wickendorf,DE"
2809778.0,Wickede,,DE,7.86667,51.48333,"Wickede,DE"
2809787.0,Wichterich,,DE,6.73333,50.716671,"Wichterich,DE"
2809793.0,Wichte,,DE,9.58333,51.033329,"Wichte,DE"
2809796.0,Wichmar,,DE,11.68333,51.033329,"Wichmar,DE"
2809817.0,Wiblingwerde,,DE,7.61667,51.299999,"Wiblingwerde,DE"
2809825.0,Wibbecke,,DE,9.78333,51.566669,"Wibbecke,DE"
2809834.0,Weyher,,DE,8.085,49.26722,"Weyher,DE"
2809835.0,Weyhe,,DE,8.66667,52.966671,"Weyhe,DE"
2809837.0,Weyhausen,,DE,10.71699,52.462078,"Weyhausen,DE"
2809838.0,Weyersfeld,,DE,9.8,50.083328,"Weyersfeld,DE"
2809845.0,Weyerbusch,,DE,7.55,50.716671,"Weyerbusch,DE"
2809850.0,Weyer,,DE,6.65,50.533329,"Weyer,DE"
2809856.0,Weyarn,,DE,11.79923,47.858379,"Weyarn,DE"
2809860.0,Wewer,,DE,8.7,51.683331,"Wewer,DE"
2809861.0,Wewelsfleth,,DE,9.4,53.849998,"Wewelsfleth,DE"
2809866.0,Wevelinghoven,,DE,6.61667,51.099998,"Wevelinghoven,DE"
2809868.0,Weuste,,DE,7.28333,51.25,"Weuste,DE"
2809870.0,Weuspert,,DE,8.03333,51.216671,"Weuspert,DE"
2809886.0,Wetzldorf,,DE,12.06667,49.866669,"Wetzldorf,DE"
2809889.0,Wetzlar,,DE,8.5,50.549999,"Wetzlar,DE"
2809893.0,Wetzhausen,,DE,10.41667,50.200001,"Wetzhausen,DE"
2809895.0,Wetzenow,,DE,14.08602,53.4716,"Wetzenow,DE"
2809896.0,Wetzendorf,,DE,11.65,51.283329,"Wetzendorf,DE"
2809900.0,Wetzen,,DE,10.23788,53.174351,"Wetzen,DE"
2809914.0,Wettstetten,,DE,11.41667,48.833328,"Wettstetten,DE"
2809916.0,Wettsaasen,,DE,9.06667,50.633331,"Wettsaasen,DE"
2809917.0,Wettrup,,DE,7.59911,52.588871,"Wettrup,DE"
2809919.0,Wettringen,,DE,7.31895,52.209389,"Wettringen,DE"
2809923.0,Wettmershagen,,DE,10.63333,52.400002,"Wettmershagen,DE"
2809925.0,Wettmar,,DE,9.91954,52.51215,"Wettmar,DE"
2809928.0,Wettlingen,,DE,6.4,49.933331,"Wettlingen,DE"
2809939.0,Wettin,,DE,11.8,51.583328,"Wettin,DE"
2809943.0,Wettesingen,,DE,9.18333,51.450001,"Wettesingen,DE"
2809944.0,Wetterzeube,,DE,12.01667,51.0,"Wetterzeube,DE"
2809955.0,Wettersdorf,,DE,9.38722,49.630829,"Wettersdorf,DE"
2809957.0,Wetterscheidt,,DE,11.85,51.116669,"Wetterscheidt,DE"
2809969.0,Wetterfeld,,DE,12.55,49.23333,"Wetterfeld,DE"
2809976.0,Wetteraukreis,,DE,8.91333,50.362782,"Wetteraukreis,DE"
2809984.0,Wetter (Ruhr),,DE,7.4,51.383331,"Wetter (Ruhr),DE"
2809985.0,Wetter,,DE,8.71667,50.900002,"Wetter,DE"
2809991.0,Wettenbostel,,DE,10.28252,53.07526,"Wettenbostel,DE"
2809995.0,Wetten,,DE,6.28333,51.566669,"Wetten,DE"
2810002.0,Wettelbrunn,,DE,7.7,47.866669,"Wettelbrunn,DE"
2810007.0,Wettbergen,,DE,9.7,52.333328,"Wettbergen,DE"
2810009.0,Wetschhausen,,DE,7.21364,49.423931,"Wetschhausen,DE"
2810014.0,Wetschen,,DE,8.44883,52.612949,"Wetschen,DE"
2810020.0,Wethen,,DE,9.07539,51.491539,"Wethen,DE"
2810024.0,Wethau,,DE,11.86667,51.133331,"Wethau,DE"
2810044.0,Westrup,,DE,8.25,52.283329,"Westrup,DE"
2810058.0,Westre,,DE,8.98333,54.849998,"Westre,DE"
2810065.0,Westochtersum,,DE,7.50727,53.608799,"Westochtersum,DE"
2810085.0,Westladbergen,,DE,7.6791,52.152561,"Westladbergen,DE"
2810088.0,Westkirchen,,DE,8.08333,51.883331,"Westkirchen,DE"
2810104.0,Westhoven,,DE,7.02456,50.899891,"Westhoven,DE"
2810110.0,Westhofen,,DE,8.24806,49.704441,"Westhofen,DE"
2810117.0,Westhemmerde,,DE,7.78333,51.549999,"Westhemmerde,DE"
2810125.0,Westheim,,DE,8.32444,49.249168,"Westheim,DE"
2810134.0,Westhausen,,DE,10.68333,51.01667,"Westhausen,DE"
2810143.0,Westgreußen,,DE,10.91667,51.25,"Westgreußen,DE"
2810147.0,Westfilderstadt,,DE,9.15,48.683331,"Westfilderstadt,DE"
2810148.0,Westfeld,,DE,9.91667,52.049999,"Westfeld,DE"
2810160.0,Westerwiehe,,DE,8.48333,51.816669,"Westerwiehe,DE"
2810168.0,Westerwalsede,,DE,9.36667,53.033329,"Westerwalsede,DE"
2810178.0,Westertimke,,DE,9.13084,53.236969,"Westertimke,DE"
2810184.0,Westerstetten,,DE,9.95494,48.519161,"Westerstetten,DE"
2810188.0,Westerstede,,DE,7.93333,53.25,"Westerstede,DE"
2810197.0,Wester Schnatebüll,,DE,8.91667,54.75,"Wester Schnatebüll,DE"
2810204.0,Westerrönfeld,,DE,9.65,54.283329,"Westerrönfeld,DE"
2810206.0,Westerried,,DE,10.46667,47.783329,"Westerried,DE"
2810208.0,Westerrade,,DE,10.45,53.933331,"Westerrade,DE"
2810214.0,Wester-Ohrstedt,,DE,9.18574,54.507961,"Wester-Ohrstedt,DE"
2810220.0,Westerode,,DE,10.5619,51.90181,"Westerode,DE"
2810223.0,Westernohe,,DE,8.1,50.583328,"Westernohe,DE"
2810224.0,Bad Westernkotten,,DE,8.36667,51.633331,"Bad Westernkotten,DE"
2810238.0,Westerndorf,,DE,12.28333,47.799999,"Westerndorf,DE"
2810249.0,Westermühlen,,DE,9.5,54.26667,"Westermühlen,DE"
2810254.0,Westermoor,,DE,9.62394,53.913509,"Westermoor,DE"
2810278.0,Westerlinde,,DE,10.22449,52.122532,"Westerlinde,DE"
2810284.0,Westerland,,DE,8.30326,54.907902,"Westerland,DE"
2810289.0,Westerkappeln,,DE,7.88333,52.316669,"Westerkappeln,DE"
2810295.0,Westerhüsen,,DE,11.67589,52.064838,"Westerhüsen,DE"
2810296.0,Westerhusen,,DE,7.18333,53.416672,"Westerhusen,DE"
2810300.0,Westerhorn,,DE,9.68333,53.866669,"Westerhorn,DE"
2810305.0,Westerholz,,DE,9.66667,54.816669,"Westerholz,DE"
2810316.0,Westerholte,,DE,7.86667,52.5,"Westerholte,DE"
2810317.0,Westerholt,,DE,7.45,53.599998,"Westerholt,DE"
2810327.0,Westerhof,,DE,10.11667,51.76667,"Westerhof,DE"
2810335.0,Westerhever,,DE,8.6774,54.382359,"Westerhever,DE"
2810336.0,Westerheim,,DE,9.62424,48.51511,"Westerheim,DE"
2810338.0,Westerheide,,DE,6.53333,51.666672,"Westerheide,DE"
2810345.0,Westerhausen,,DE,11.06667,51.799999,"Westerhausen,DE"
2810361.0,Westerham,,DE,12.36667,47.816669,"Westerham,DE"
2810364.0,Westergellersen,,DE,10.25,53.23333,"Westergellersen,DE"
2810375.0,Westerfeld,,DE,9.71667,52.333328,"Westerfeld,DE"
2810384.0,Westerengel,,DE,10.9,51.283329,"Westerengel,DE"
2810395.0,Westeregeln,,DE,11.4,51.966671,"Westeregeln,DE"
2810399.0,Westerdeichstrich,,DE,8.86667,54.166672,"Westerdeichstrich,DE"
2810400.0,Westerdeich,,DE,7.33333,53.666672,"Westerdeich,DE"
2810413.0,Westerburg,,DE,7.98333,50.566669,"Westerburg,DE"
2810419.0,Westerbünge,,DE,9.33333,54.433331,"Westerbünge,DE"
2810428.0,Westerborstel,,DE,9.28333,54.23333,"Westerborstel,DE"
2810429.0,Wester Bordelum,,DE,8.93333,54.633331,"Wester Bordelum,DE"
2810430.0,Westerbönen,,DE,7.76667,51.599998,"Westerbönen,DE"
2810431.0,Westerbeverstedt,,DE,8.75,53.433331,"Westerbeverstedt,DE"
2810493.0,Westerau,,DE,10.5,53.783329,"Westerau,DE"
2810496.0,Westerakeby,,DE,9.7,54.583328,"Westerakeby,DE"
2810501.0,Wester,,DE,7.81667,51.916672,"Wester,DE"
2810505.0,Westensee,,DE,9.9,54.283329,"Westensee,DE"
2810513.0,Westenholz,,DE,8.46667,51.75,"Westenholz,DE"
2810516.0,Westenhausen,,DE,11.55,48.73333,"Westenhausen,DE"
2810519.0,Westenfeld,,DE,7.43333,52.066669,"Westenfeld,DE"
2810530.0,Westendorf,,DE,7.73333,51.333328,"Westendorf,DE"
2810539.0,Westend,,DE,13.6,52.450001,"Westend,DE"
2810540.0,Westenbrügge,,DE,11.73333,54.049999,"Westenbrügge,DE"
2810547.0,Westen,,DE,7.16667,51.26667,"Westen,DE"
2810559.0,Weste,,DE,10.70283,53.059429,"Weste,DE"
2810581.0,Wessobrunn,,DE,11.03333,47.883331,"Wessobrunn,DE"
2810583.0,Weßnitz,,DE,13.55,51.283329,"Weßnitz,DE"
2810587.0,Weßling,,DE,11.2482,48.07452,"Weßling,DE"
2810590.0,Wessin,,DE,11.73333,53.566669,"Wessin,DE"
2810608.0,Wesseln,,DE,9.08333,54.200001,"Wesseln,DE"
2810612.0,Wesseling,,DE,6.98333,50.833328,"Wesseling,DE"
2810617.0,Wesselburenerkoog,,DE,8.88333,54.25,"Wesselburenerkoog,DE"
2810618.0,Wesselburener Deichhausen,,DE,8.93333,54.166672,"Wesselburener Deichhausen,DE"
2810619.0,Wesselburen,,DE,8.91667,54.216671,"Wesselburen,DE"
2810641.0,Weskow,,DE,14.4,51.599998,"Weskow,DE"
2810651.0,Weseram,,DE,12.68333,52.466671,"Weseram,DE"
2810659.0,Wesendorf,,DE,10.53333,52.599998,"Wesendorf,DE"
2810662.0,Wesenberg,,DE,12.96936,53.2803,"Wesenberg,DE"
2810673.0,Weselberg,,DE,7.61667,49.333328,"Weselberg,DE"
2810674.0,Kreis Wesel,,DE,6.63917,51.643608,"Kreis Wesel,DE"
2810678.0,Wesel,,DE,6.61667,51.666672,"Wesel,DE"
2810680.0,Weseke,,DE,6.85,51.916672,"Weseke,DE"
2810683.0,Weseby,,DE,9.71667,54.5,"Weseby,DE"
2810688.0,Weschnitz,,DE,8.84111,49.659168,"Weschnitz,DE"
2810702.0,Wertingen,,DE,10.68333,48.549999,"Wertingen,DE"
2810710.0,Werther,,DE,8.41793,52.077709,"Werther,DE"
2810714.0,Werthenbach,,DE,8.21667,50.866669,"Werthenbach,DE"
2810716.0,Wertheim,,DE,9.50944,49.7575,"Wertheim,DE"
2810719.0,Werth,,DE,6.28572,50.78109,"Werth,DE"
2810728.0,Wertach,,DE,10.4,47.599998,"Wertach,DE"
2810732.0,Wershofen,,DE,6.81333,50.44482,"Wershofen,DE"
2810734.0,Wersen,,DE,7.95,52.316669,"Wersen,DE"
2810748.0,Werschau,,DE,8.16667,50.349998,"Werschau,DE"
2810753.0,Wersau,,DE,8.86444,49.777779,"Wersau,DE"
2810763.0,Werpeloh,,DE,7.5,52.883331,"Werpeloh,DE"
2810767.0,Weroth,,DE,7.95,50.466671,"Weroth,DE"
2810775.0,Wernshausen,,DE,10.35,50.716671,"Wernshausen,DE"
2810777.0,Wernsdorf,,DE,13.71667,52.366669,"Wernsdorf,DE"
2810795.0,Wernrode,,DE,10.73333,51.400002,"Wernrode,DE"
2810797.0,Wernitzgrün,,DE,12.36667,50.299999,"Wernitzgrün,DE"
2810801.0,Werningshausen,,DE,11.0,51.133331,"Werningshausen,DE"
2810808.0,Wernigerode,,DE,10.78333,51.833328,"Wernigerode,DE"
2810813.0,Wernfels,,DE,10.86667,49.200001,"Wernfels,DE"
2810814.0,Wernfeld,,DE,9.73333,50.033329,"Wernfeld,DE"
2810815.0,Werneuchen,,DE,13.73437,52.632751,"Werneuchen,DE"
2810818.0,Wernesgrün,,DE,12.48333,50.533329,"Wernesgrün,DE"
2810828.0,Wernersberg,,DE,7.93333,49.183331,"Wernersberg,DE"
2810832.0,Werneck,,DE,10.1,49.98333,"Werneck,DE"
2810833.0,Werne,,DE,7.63421,51.664459,"Werne,DE"
2810834.0,Bochum-Werne,,DE,7.31217,51.487961,"Bochum-Werne,DE"
2810835.0,Werndlfing,,DE,11.8715,48.289131,"Werndlfing,DE"
2810836.0,Wernburg,,DE,11.60199,50.67775,"Wernburg,DE"
2810838.0,Wernborn,,DE,8.56899,50.361118,"Wernborn,DE"
2810840.0,Wernberg-Köblitz,,DE,12.15167,49.536942,"Wernberg-Köblitz,DE"
2810841.0,Wernau,,DE,9.41533,48.693062,"Wernau,DE"
2810844.0,Werna,,DE,10.7,51.583328,"Werna,DE"
2810848.0,Wermsdorf,,DE,12.95,51.283329,"Wermsdorf,DE"
2810853.0,Wermertshausen,,DE,8.9,50.700001,"Wermertshausen,DE"
2810855.0,Wermelskirchen,,DE,7.21667,51.150002,"Wermelskirchen,DE"
2810860.0,Werlte,,DE,7.68333,52.849998,"Werlte,DE"
2810863.0,Werlitzsch,,DE,12.19276,51.436729,"Werlitzsch,DE"
2810864.0,Werleshausen,,DE,9.91667,51.316669,"Werleshausen,DE"
2810871.0,Werlau,,DE,7.68333,50.150002,"Werlau,DE"
2810874.0,Werlaburgdorf,,DE,10.53726,52.049961,"Werlaburgdorf,DE"
2810878.0,Werl,,DE,7.91667,51.549999,"Werl,DE"
2810881.0,Werkleitz,,DE,11.86667,51.916672,"Werkleitz,DE"
2810883.0,Werkhausen,,DE,7.53333,50.73333,"Werkhausen,DE"
2810898.0,Werftpfuhl,,DE,13.79351,52.660141,"Werftpfuhl,DE"
2810912.0,Werenzhain,,DE,13.53333,51.650002,"Werenzhain,DE"
2810917.0,Werdum,,DE,7.71901,53.657509,"Werdum,DE"
2810919.0,Werdohl,,DE,7.76667,51.26667,"Werdohl,DE"
2810920.0,Werderthau,,DE,12.0,51.633331,"Werderthau,DE"
2810922.0,Werdershausen,,DE,11.9,51.666672,"Werdershausen,DE"
2810936.0,Werder,,DE,13.35663,53.716518,"Werder,DE"
2810961.0,Werden,,DE,7.00307,51.38829,"Werden,DE"
2810969.0,Werdau,,DE,12.38333,50.73333,"Werdau,DE"
2810970.0,Werda,,DE,12.31667,50.433331,"Werda,DE"
2810981.0,Werbig,,DE,13.2,51.933331,"Werbig,DE"
2810985.0,Werben,,DE,14.18333,51.816669,"Werben,DE"
2811000.0,Werbach,,DE,9.63944,49.67083,"Werbach,DE"
2811002.0,Weppersdorf,,DE,10.92376,49.722931,"Weppersdorf,DE"
2811007.0,Wenzlow,,DE,12.45,52.299999,"Wenzlow,DE"
2811011.0,Wenzendorf,,DE,9.76667,53.349998,"Wenzendorf,DE"
2811013.0,Wenzenbach,,DE,12.19417,49.075562,"Wenzenbach,DE"
2811016.0,Wenzen,,DE,9.81667,51.866669,"Wenzen,DE"
2811022.0,Wenze,,DE,11.11667,52.566669,"Wenze,DE"
2811025.0,Wentrup,,DE,7.61667,52.099998,"Wentrup,DE"
2811031.0,Wentorf bei Hamburg,,DE,10.25,53.5,"Wentorf bei Hamburg,DE"
2811034.0,Wentorf,,DE,10.46667,53.683331,"Wentorf,DE"
2811047.0,Wensin,,DE,10.41667,53.98333,"Wensin,DE"
2811050.0,Wensickendorf,,DE,13.37663,52.75531,"Wensickendorf,DE"
2811070.0,Wennigser Mark,,DE,9.52944,52.270359,"Wennigser Mark,DE"
2811072.0,Wennigsen,,DE,9.57287,52.27404,"Wennigsen,DE"
2811077.0,Wennerstorf,,DE,9.78333,53.366669,"Wennerstorf,DE"
2811094.0,Wennbüttel,,DE,9.33333,54.133331,"Wennbüttel,DE"
2811107.0,Wenigumstadt,,DE,9.04389,49.89444,"Wenigumstadt,DE"
2811111.0,Wenigmünchen,,DE,11.21667,48.26667,"Wenigmünchen,DE"
2811115.0,Wenighösbach,,DE,9.2,50.033329,"Wenighösbach,DE"
2811118.0,Wenigensömmern,,DE,11.13333,51.183331,"Wenigensömmern,DE"
2811119.0,Wenigenlupnitz,,DE,10.43333,50.98333,"Wenigenlupnitz,DE"
2811138.0,Wengenroth,,DE,7.98333,50.549999,"Wengenroth,DE"
2811145.0,Wengen,,DE,9.87377,48.928391,"Wengen,DE"
2811156.0,Wengelsdorf,,DE,12.05,51.283329,"Wengelsdorf,DE"
2811159.0,Wenge,,DE,6.98333,51.683331,"Wenge,DE"
2811160.0,Weng,,DE,12.38333,48.666672,"Weng,DE"
2811173.0,Wendtorf,,DE,10.3,54.416672,"Wendtorf,DE"
2811174.0,Wendthöhe,,DE,9.2,52.283329,"Wendthöhe,DE"
2811187.0,Wendorf,,DE,13.07682,54.255402,"Wendorf,DE"
2811204.0,Wendlingen am Neckar,,DE,9.37632,48.671242,"Wendlingen am Neckar,DE"
2811216.0,Wendisch Waren,,DE,12.12959,53.574471,"Wendisch Waren,DE"
2811218.0,Wendisch Rietz,,DE,14.01667,52.200001,"Wendisch Rietz,DE"
2811220.0,Wendisch Priborn,,DE,12.28333,53.333328,"Wendisch Priborn,DE"
2811224.0,Wendisch Kirchhof,,DE,12.21667,52.799999,"Wendisch Kirchhof,DE"
2811227.0,Wendisch Evern,,DE,10.46667,53.216671,"Wendisch Evern,DE"
2811231.0,Wendischbrome,,DE,10.91667,52.616669,"Wendischbrome,DE"
2811236.0,Wendisch Baggendorf,,DE,12.94335,54.07399,"Wendisch Baggendorf,DE"
2811241.0,Wendhausen,,DE,10.08333,52.133331,"Wendhausen,DE"
2811253.0,Wendessen,,DE,10.58945,52.15519,"Wendessen,DE"
2811254.0,Wendesse,,DE,10.23333,52.366669,"Wendesse,DE"
2811262.0,Wendenschloss,,DE,13.58333,52.416672,"Wendenschloss,DE"
2811269.0,Wendenerhütte,,DE,7.81667,50.966671,"Wendenerhütte,DE"
2811278.0,Wenden,,DE,7.86667,50.966671,"Wenden,DE"
2811286.0,Wendelstorf,,DE,11.26667,53.73333,"Wendelstorf,DE"
2811292.0,Wendelstein,,DE,11.14833,49.353611,"Wendelstein,DE"
2811295.0,Wendelsheim,,DE,8.0,49.76667,"Wendelsheim,DE"
2811311.0,Wendehausen,,DE,10.25,51.166672,"Wendehausen,DE"
2811314.0,Wendefurth,,DE,10.91667,51.73333,"Wendefurth,DE"
2811317.0,Wendeburg,,DE,10.39255,52.329571,"Wendeburg,DE"
2811323.0,Wendebach,,DE,9.71667,50.833328,"Wendebach,DE"
2811326.0,Wenddorf,,DE,11.75,52.383331,"Wenddorf,DE"
2811334.0,Wemmetsweiler,,DE,7.08333,49.366669,"Wemmetsweiler,DE"
2811342.0,Wemding,,DE,10.71667,48.866669,"Wemding,DE"
2811346.0,Wembach,,DE,7.8869,47.772499,"Wembach,DE"
2811348.0,Welzow,,DE,14.18333,51.566669,"Welzow,DE"
2811354.0,Welzheim,,DE,9.63434,48.876751,"Welzheim,DE"
2811360.0,Welxande,,DE,13.75643,51.300571,"Welxande,DE"
2811361.0,Welver,,DE,7.96667,51.616669,"Welver,DE"
2811368.0,Weltewitz,,DE,12.56269,51.418098,"Weltewitz,DE"
2811370.0,Weltersburg,,DE,7.95,50.533329,"Weltersburg,DE"
2811377.0,Weltersbach,,DE,7.51667,49.450001,"Weltersbach,DE"
2811378.0,Welterod,,DE,7.88333,50.133331,"Welterod,DE"
2811384.0,Welt,,DE,8.79458,54.302479,"Welt,DE"
2811387.0,Welsleben,,DE,11.65,52.0,"Welsleben,DE"
2811392.0,Welshofen,,DE,11.27069,48.32016,"Welshofen,DE"
2811403.0,Welschneudorf,,DE,7.8,50.366669,"Welschneudorf,DE"
2811412.0,Welschen-Ennest,,DE,8.0,51.033329,"Welschen-Ennest,DE"
2811413.0,Welschenbach,,DE,7.06667,50.366669,"Welschenbach,DE"
2811420.0,Welschbillig,,DE,6.56667,49.849998,"Welschbillig,DE"
2811427.0,Welsau,,DE,12.9697,51.572159,"Welsau,DE"
2811436.0,Welmlingen,,DE,7.56168,47.690121,"Welmlingen,DE"
2811439.0,Welmbüttel,,DE,9.25,54.200001,"Welmbüttel,DE"
2811444.0,Wellspang,,DE,9.61667,54.583328,"Wellspang,DE"
2811461.0,Wellingsbüttel,,DE,10.0798,53.641041,"Wellingsbüttel,DE"
2811474.0,Welling,,DE,7.31667,50.333328,"Welling,DE"
2811482.0,Wellheim,,DE,11.1,48.799999,"Wellheim,DE"
2811485.0,Wellesberg,,DE,7.33333,50.716671,"Wellesberg,DE"
2811495.0,Wellerode,,DE,9.56667,51.23333,"Wellerode,DE"
2811514.0,Wellendingen,,DE,8.70375,48.147449,"Wellendingen,DE"
2811532.0,Wellen,,DE,11.44106,52.14518,"Wellen,DE"
2811537.0,Welle,,DE,9.80178,53.239849,"Welle,DE"
2811550.0,Wellbach,,DE,8.6,52.049999,"Wellbach,DE"
2811551.0,Wellaune,,DE,12.55686,51.571629,"Wellaune,DE"
2811555.0,Welkers,,DE,9.7211,50.480068,"Welkers,DE"
2811558.0,Welkenbach,,DE,7.73333,50.633331,"Welkenbach,DE"
2811562.0,Welgesheim,,DE,7.96667,49.883331,"Welgesheim,DE"
2811564.0,Welfesholz,,DE,11.56667,51.633331,"Welfesholz,DE"
2811570.0,Welden,,DE,10.66086,48.455051,"Welden,DE"
2811573.0,Welda,,DE,9.10921,51.45219,"Welda,DE"
2811575.0,Welchweiler,,DE,7.5,49.583328,"Welchweiler,DE"
2811578.0,Welcherath,,DE,6.96667,50.316669,"Welcherath,DE"
2811588.0,Welbeck,,DE,7.73333,51.916672,"Welbeck,DE"
2811600.0,Weixerau,,DE,12.01667,48.5,"Weixerau,DE"
2811609.0,Weitsche,,DE,11.13333,53.033329,"Weitsche,DE"
2811611.0,Weitramsdorf,,DE,10.88333,50.25,"Weitramsdorf,DE"
2811614.0,Weitnau,,DE,10.13333,47.650002,"Weitnau,DE"
2811643.0,Weitersweiler,,DE,8.0,49.616669,"Weitersweiler,DE"
2811644.0,Weiterstadt,,DE,8.59528,49.90778,"Weiterstadt,DE"
2811646.0,Weiterskirchen,,DE,11.90394,47.97205,"Weiterskirchen,DE"
2811649.0,Weitershain,,DE,8.9621,50.66589,"Weitershain,DE"
2811651.0,Weitersdorf,,DE,10.9,49.400002,"Weitersdorf,DE"
2811652.0,Weitersburg,,DE,7.6,50.416672,"Weitersburg,DE"
2811653.0,Weitersborn,,DE,7.53333,49.849998,"Weitersborn,DE"
2811654.0,Weitersbach,,DE,7.31667,49.866669,"Weitersbach,DE"
2811664.0,Weitenhagen,,DE,12.78676,54.226761,"Weitenhagen,DE"
2811675.0,Weitendorf,,DE,11.75,53.716671,"Weitendorf,DE"
2811683.0,Weiten,,DE,6.54064,49.530109,"Weiten,DE"
2811685.0,Weitefeld,,DE,7.93333,50.716671,"Weitefeld,DE"
2811691.0,Weisweil,,DE,7.67713,48.19939,"Weisweil,DE"
2811698.0,Weißwasser,,DE,14.63333,51.51667,"Weißwasser,DE"
2811701.0,Weißnaußlitz,,DE,14.34746,51.139019,"Weißnaußlitz,DE"
2811709.0,Weißlenreuth,,DE,11.83333,50.25,"Weißlenreuth,DE"
2811713.0,Weißkeißel,,DE,14.71667,51.48333,"Weißkeißel,DE"
2811715.0,Weißig,,DE,13.45,51.283329,"Weißig,DE"
2811803.0,Weißer Hirsch,,DE,13.82063,51.06287,"Weißer Hirsch,DE"
2811837.0,Weißenthurm,,DE,7.45,50.416672,"Weißenthurm,DE"
2811852.0,Weißenstadt,,DE,11.86667,50.099998,"Weißenstadt,DE"
2811856.0,Weißensee,,DE,13.94586,52.917488,"Weißensee,DE"
2811864.0,Weißenschirmbach,,DE,11.55,51.316669,"Weißenschirmbach,DE"
2811865.0,Weißensberg,,DE,9.73333,47.583328,"Weißensberg,DE"
2811870.0,Weißenohe,,DE,11.25369,49.63089,"Weißenohe,DE"
2811879.0,Weißenhorn,,DE,10.16047,48.305012,"Weißenhorn,DE"
2811899.0,Weißenfels,,DE,11.96667,51.200001,"Weißenfels,DE"
2811905.0,Weißendorf,,DE,12.0,50.683331,"Weißendorf,DE"
2811909.0,Weißenburg in Bayern,,DE,10.97221,49.030949,"Weißenburg in Bayern,DE"
2811918.0,Weißenbrunn,,DE,11.35,50.200001,"Weißenbrunn,DE"
2811927.0,Weißenborn-Lüderode,,DE,10.41667,51.533329,"Weißenborn-Lüderode,DE"
2811930.0,Weißenborn,,DE,10.11667,51.116669,"Weißenborn,DE"
2811941.0,Weißenberg,,DE,14.66667,51.200001,"Weißenberg,DE"
2811964.0,Weißenbach,,DE,9.85,51.25,"Weißenbach,DE"
2812009.0,Weißdorf,,DE,11.85,50.183331,"Weißdorf,DE"
2812032.0,Weißbach,,DE,11.78333,50.816669,"Weißbach,DE"
2812043.0,Weißandt-Gölzau,,DE,12.06667,51.666672,"Weißandt-Gölzau,DE"
2812053.0,Weissach,,DE,8.92828,48.84687,"Weissach,DE"
2812055.0,Weißach,,DE,10.03333,47.549999,"Weißach,DE"
2812058.0,Weiß,,DE,7.03846,50.86729,"Weiß,DE"
2812067.0,Weismain,,DE,11.23979,50.084862,"Weismain,DE"
2812071.0,Weiskirchen,,DE,6.81667,49.549999,"Weiskirchen,DE"
2812073.0,Weisingen,,DE,10.51426,48.51228,"Weisingen,DE"
2812084.0,Weisenheim am Sand,,DE,8.24778,49.518059,"Weisenheim am Sand,DE"
2812085.0,Weisenheim am Berg,,DE,8.15389,49.513062,"Weisenheim am Berg,DE"
2812086.0,Weisendorf,,DE,10.82531,49.622829,"Weisendorf,DE"
2812092.0,Weisenbach,,DE,8.35,48.716671,"Weisenbach,DE"
2812095.0,Weisen,,DE,11.78333,53.033329,"Weisen,DE"
2812099.0,Weisel,,DE,7.8,50.116669,"Weisel,DE"
2812103.0,Weischütz,,DE,11.7,51.216671,"Weischütz,DE"
2812104.0,Weischlitz,,DE,12.06667,50.450001,"Weischlitz,DE"
2812118.0,Weira,,DE,11.71667,50.700001,"Weira,DE"
2812119.0,Weipoltshausen,,DE,8.6,50.700001,"Weipoltshausen,DE"
2812128.0,Weipersdorf,,DE,12.0,48.433331,"Weipersdorf,DE"
2812129.0,Weiperfelden,,DE,8.55526,50.419781,"Weiperfelden,DE"
2812145.0,Weinstadt-Endersbach,,DE,9.36387,48.81311,"Weinstadt-Endersbach,DE"
2812148.0,Weinsheim,,DE,6.46667,50.23333,"Weinsheim,DE"
2812158.0,Weinsberg,,DE,9.28833,49.15028,"Weinsberg,DE"
2812163.0,Weinried,,DE,10.26667,48.133331,"Weinried,DE"
2812164.0,Weinolsheim,,DE,8.27278,49.81583,"Weinolsheim,DE"
2812174.0,Weinheim,,DE,8.66611,49.548328,"Weinheim,DE"
2812181.0,Weingartsgreuth,,DE,10.73333,49.73333,"Weingartsgreuth,DE"
2812182.0,Weingartsgasse,,DE,7.28565,50.78838,"Weingartsgasse,DE"
2812193.0,Weingarten,,DE,10.53333,50.98333,"Weingarten,DE"
2812220.0,Weine,,DE,8.53333,51.533329,"Weine,DE"
2812225.0,Weinböhla,,DE,13.56667,51.166672,"Weinböhla,DE"
2812241.0,Weinberge,,DE,12.75,51.683331,"Weinberge,DE"
2812269.0,Weinberg,,DE,14.16667,51.466671,"Weinberg,DE"
2812469.0,Weinbach,,DE,8.3,50.433331,"Weinbach,DE"
2812471.0,Weinähr,,DE,7.85,50.316669,"Weinähr,DE"
2812472.0,Weimersheim,,DE,10.91998,49.04023,"Weimersheim,DE"
2812480.0,Weimarer Land,,DE,11.25,50.916672,"Weimarer Land,DE"
2812482.0,Weimar,,DE,11.31667,50.98333,"Weimar,DE"
2812484.0,Weiltingen,,DE,10.45,49.033329,"Weiltingen,DE"
2812497.0,Weilmünster,,DE,8.36667,50.433331,"Weilmünster,DE"
2812501.0,Weiling,,DE,12.53333,48.833328,"Weiling,DE"
2812502.0,Weil im Schönbuch,,DE,9.06355,48.6227,"Weil im Schönbuch,DE"
2812503.0,Weilimdorf,,DE,9.11174,48.813671,"Weilimdorf,DE"
2812509.0,Weilheim an der Teck,,DE,9.53751,48.615719,"Weilheim an der Teck,DE"
2812511.0,Weilheim,,DE,10.58333,48.650002,"Weilheim,DE"
2812522.0,Weilerswist,,DE,6.83333,50.76667,"Weilerswist,DE"
2812539.0,Weiler in der Ebene,,DE,6.7,50.73333,"Weiler in der Ebene,DE"
2812568.0,Weilerbach,,DE,7.63333,49.48333,"Weilerbach,DE"
2812580.0,Weiler,,DE,7.11667,50.316669,"Weiler,DE"
2812617.0,Weilen unter den Rinnen,,DE,8.76486,48.189838,"Weilen unter den Rinnen,DE"
2812625.0,Weil der Stadt,,DE,8.86667,48.75,"Weil der Stadt,DE"
2812626.0,Weilburg,,DE,8.25,50.48333,"Weilburg,DE"
2812633.0,Weilbach,,DE,9.21861,49.665279,"Weilbach,DE"
2812634.0,Weilar,,DE,10.15,50.76667,"Weilar,DE"
2812636.0,Weil am Rhein,,DE,7.62082,47.593311,"Weil am Rhein,DE"
2812644.0,Weil,,DE,10.92161,48.117168,"Weil,DE"
2812650.0,Weikertsham,,DE,12.55,48.033329,"Weikertsham,DE"
2812655.0,Weikersheim,,DE,9.905,49.48056,"Weikersheim,DE"
2812656.0,Weikersdorf,,DE,10.38333,49.116669,"Weikersdorf,DE"
2812670.0,Weihmichl,,DE,12.05,48.599998,"Weihmichl,DE"
2812690.0,Weihers,,DE,9.91667,47.616669,"Weihers,DE"
2812700.0,Weihern,,DE,11.51667,48.533329,"Weihern,DE"
2812713.0,Weiherhöfen,,DE,11.86667,50.099998,"Weiherhöfen,DE"
2812718.0,Weiherhof,,DE,10.92565,49.45953,"Weiherhof,DE"
2812752.0,Weiherhammer,,DE,12.06667,49.633331,"Weiherhammer,DE"
2812790.0,Weiher,,DE,11.45,50.099998,"Weiher,DE"
2812831.0,Weihenzell,,DE,10.61667,49.349998,"Weihenzell,DE"
2812833.0,Weihenstephan,,DE,11.73333,48.400002,"Weihenstephan,DE"
2812839.0,Weigsdorf-Köblitz,,DE,14.48333,51.099998,"Weigsdorf-Köblitz,DE"
2812840.0,Weigsdorf,,DE,14.48333,51.099998,"Weigsdorf,DE"
2812842.0,Weigmannsdorf,,DE,13.38333,50.833328,"Weigmannsdorf,DE"
2812853.0,Weigenhofen,,DE,11.31667,49.48333,"Weigenhofen,DE"
2812854.0,Weigenheim,,DE,10.26667,49.566669,"Weigenheim,DE"
2812855.0,Weigendorf,,DE,11.56667,49.5,"Weigendorf,DE"
2812865.0,Weifa,,DE,14.36119,51.075809,"Weifa,DE"
2812874.0,Weiersbach,,DE,7.2,49.599998,"Weiersbach,DE"
2812885.0,Weierbach,,DE,7.4,49.716671,"Weierbach,DE"
2812894.0,Weidorf,,DE,11.06667,48.616669,"Weidorf,DE"
2812912.0,Weiditz,,DE,12.8,51.083328,"Weiditz,DE"
2812914.0,Weidingen,,DE,6.38333,50.01667,"Weidingen,DE"
2812915.0,Weiding,,DE,12.56667,49.48333,"Weiding,DE"
2812928.0,Weidig,,DE,12.23333,50.633331,"Weidig,DE"
2812931.0,Weidhausen bei Coburg,,DE,11.13333,50.200001,"Weidhausen bei Coburg,DE"
2812932.0,Weidhausen,,DE,11.2,50.333328,"Weidhausen,DE"
2812954.0,Weidenthal,,DE,8.0,49.416672,"Weidenthal,DE"
2812958.0,Weidenstetten,,DE,9.9961,48.552502,"Weidenstetten,DE"
2812961.0,Weidensdorf,,DE,12.53333,50.849998,"Weidensdorf,DE"
2812992.0,Weidenhain,,DE,12.85,51.566669,"Weidenhain,DE"
2812994.0,Weidenhahn,,DE,7.83333,50.549999,"Weidenhahn,DE"
2813001.0,Weidendorf,,DE,10.56667,49.200001,"Weidendorf,DE"
2813007.0,Weidenberg,,DE,11.72028,49.942219,"Weidenberg,DE"
2813019.0,Weidenbach,,DE,11.66667,51.383331,"Weidenbach,DE"
2813029.0,Weidenau,,DE,11.78333,47.799999,"Weidenau,DE"
2813039.0,Weiden,,DE,7.3,49.816669,"Weiden,DE"
2813090.0,Weidach,,DE,11.90678,47.951309,"Weidach,DE"
2813110.0,Weida,,DE,12.06667,50.76667,"Weida,DE"
2813113.0,Weickersdorf,,DE,14.16667,51.116669,"Weickersdorf,DE"
2813122.0,Weickelsdorf,,DE,11.95,51.049999,"Weickelsdorf,DE"
2813125.0,Weichtungen,,DE,10.28333,50.216671,"Weichtungen,DE"
2813127.0,Weicht,,DE,10.66667,48.0,"Weicht,DE"
2813139.0,Weichselbaum,,DE,11.28333,48.083328,"Weichselbaum,DE"
2813145.0,Weichs,,DE,11.41667,48.383331,"Weichs,DE"
2813152.0,Weichering,,DE,11.31667,48.716671,"Weichering,DE"
2813158.0,Weichendorf,,DE,10.95,49.933331,"Weichendorf,DE"
2813173.0,Weibhausen,,DE,12.7,47.900002,"Weibhausen,DE"
2813176.0,Weibersbrunn,,DE,9.36611,49.930828,"Weibersbrunn,DE"
2813180.0,Weibern,,DE,7.15,50.400002,"Weibern,DE"
2813194.0,Wehrstedt,,DE,10.01146,52.045952,"Wehrstedt,DE"
2813200.0,Wehrsdorf,,DE,14.38745,51.054829,"Wehrsdorf,DE"
2813209.0,Wehringen,,DE,10.8,48.25,"Wehringen,DE"
2813216.0,Wehrheim,,DE,8.56667,50.299999,"Wehrheim,DE"
2813235.0,Wehre,,DE,10.49795,52.004219,"Wehre,DE"
2813242.0,Wehrda,,DE,9.66667,50.73333,"Wehrda,DE"
2813246.0,Wehrbleck,,DE,8.69019,52.628899,"Wehrbleck,DE"
2813259.0,Wehr,,DE,7.21667,50.416672,"Wehr,DE"
2813263.0,Wehofen,,DE,6.76667,51.533329,"Wehofen,DE"
2813277.0,Wehnde,,DE,10.31667,51.48333,"Wehnde,DE"
2813284.0,Wehm,,DE,7.66667,52.833328,"Wehm,DE"
2813299.0,Wehldorf,,DE,9.28333,53.23333,"Wehldorf,DE"
2813301.0,Wehlau,,DE,12.16667,51.683331,"Wehlau,DE"
2813303.0,Wehl,,DE,6.67608,51.135738,"Wehl,DE"
2813308.0,Wehingen,,DE,8.79151,48.145329,"Wehingen,DE"
2813314.0,Wehen,,DE,8.18333,50.150002,"Wehen,DE"
2813335.0,Wehbach,,DE,7.85,50.833328,"Wehbach,DE"
2813337.0,Weha,,DE,11.88333,49.816669,"Weha,DE"
2813344.0,Wegscheid,,DE,13.78733,48.60136,"Wegscheid,DE"
2813378.0,Wegensen,,DE,9.55313,52.006859,"Wegensen,DE"
2813380.0,Wegendorf,,DE,13.75703,52.60096,"Wegendorf,DE"
2813383.0,Wegeleben,,DE,11.16667,51.883331,"Wegeleben,DE"
2813386.0,Wegefarth,,DE,13.25,50.916672,"Wegefarth,DE"
2813390.0,Wegberg,,DE,6.26667,51.150002,"Wegberg,DE"
2813392.0,Wega,,DE,9.16667,51.133331,"Wega,DE"
2813397.0,Weg,,DE,10.6,47.700001,"Weg,DE"
2813405.0,Weferlingen,,DE,11.05791,52.31205,"Weferlingen,DE"
2813407.0,Wefensleben,,DE,11.16074,52.183189,"Wefensleben,DE"
2813410.0,Weeze,,DE,6.19792,51.626781,"Weeze,DE"
2813411.0,Weetzen,,DE,9.63947,52.29504,"Weetzen,DE"
2813425.0,Weesby,,DE,9.15,54.833328,"Weesby,DE"
2813427.0,Wees,,DE,9.51667,54.816669,"Wees,DE"
2813428.0,Weertzen,,DE,9.38333,53.299999,"Weertzen,DE"
2813431.0,Weenzen,,DE,9.66667,52.033329,"Weenzen,DE"
2813433.0,Weener,,DE,7.35,53.166672,"Weener,DE"
2813442.0,Weede,,DE,10.38333,53.916672,"Weede,DE"
2813443.0,Wedtlenstedt,,DE,10.40852,52.272461,"Wedtlenstedt,DE"
2813451.0,Wedesbüttel,,DE,10.58333,52.383331,"Wedesbüttel,DE"
2813455.0,Wedendorf,,DE,11.11667,53.76667,"Wedendorf,DE"
2813458.0,Wedelwitz,,DE,12.6187,51.442589,"Wedelwitz,DE"
2813464.0,Wedel,,DE,9.69835,53.58374,"Wedel,DE"
2813468.0,Weddingstedt,,DE,9.1,54.23333,"Weddingstedt,DE"
2813477.0,Weddewarden,,DE,8.53535,53.600498,"Weddewarden,DE"
2813479.0,Wedderstedt,,DE,11.23333,51.833328,"Wedderstedt,DE"
2813480.0,Weddersleben,,DE,11.08333,51.76667,"Weddersleben,DE"
2813483.0,Weddern,,DE,7.3,51.866669,"Weddern,DE"
2813486.0,Weddeort,,DE,13.48333,54.566669,"Weddeort,DE"
2813493.0,Weddelbrook,,DE,9.83333,53.900002,"Weddelbrook,DE"
2813498.0,Weddel,,DE,10.61667,52.26667,"Weddel,DE"
2813512.0,Weckesheim,,DE,8.85,50.366669,"Weckesheim,DE"
2813518.0,Weckbach,,DE,9.17778,49.674171,"Weckbach,DE"
2813524.0,Wechselburg,,DE,12.76667,51.0,"Wechselburg,DE"
2813531.0,Wechingen,,DE,10.61667,48.900002,"Wechingen,DE"
2813539.0,Weberstedt,,DE,10.5,51.099998,"Weberstedt,DE"
2813548.0,Webern,,DE,8.75,49.75,"Webern,DE"
2813567.0,Webau,,DE,12.06667,51.183331,"Webau,DE"
2813573.0,Waxweiler,,DE,6.36667,50.099998,"Waxweiler,DE"
2813580.0,Wawern,,DE,6.48333,50.116669,"Wawern,DE"
2813600.0,Watzing,,DE,12.85,47.933331,"Watzing,DE"
2813604.0,Watzerath,,DE,6.36667,50.183331,"Watzerath,DE"
2813611.0,Watzenborn,,DE,8.71667,50.533329,"Watzenborn,DE"
2813614.0,Watzelhain,,DE,8.0,50.133331,"Watzelhain,DE"
2813624.0,Wattmannshagen,,DE,12.41667,53.783329,"Wattmannshagen,DE"
2813630.0,Watterbach,,DE,9.13639,49.628891,"Watterbach,DE"
2813635.0,Wattenscheid,,DE,7.13333,51.48333,"Wattenscheid,DE"
2813638.0,Wattenheim,,DE,8.06167,49.521671,"Wattenheim,DE"
2813640.0,Wattenham,,DE,12.43333,47.966671,"Wattenham,DE"
2813641.0,Wattendorf,,DE,11.12623,50.032612,"Wattendorf,DE"
2813643.0,Wattenberg,,DE,11.5062,49.17239,"Wattenberg,DE"
2813647.0,Wattenbek,,DE,10.05,54.166672,"Wattenbek,DE"
2813649.0,Wattenbach,,DE,9.58333,51.200001,"Wattenbach,DE"
2813660.0,Wathlingen,,DE,10.15,52.533329,"Wathlingen,DE"
2813679.0,Watenstedt,,DE,10.83715,52.088581,"Watenstedt,DE"
2813685.0,Wasungen,,DE,10.36667,50.666672,"Wasungen,DE"
2813700.0,Wassertrüdingen,,DE,10.6,49.049999,"Wassertrüdingen,DE"
2813701.0,Wasserthaleben,,DE,10.88333,51.25,"Wasserthaleben,DE"
2813719.0,Wassermungenau,,DE,10.88333,49.216671,"Wassermungenau,DE"
2813723.0,Wasserlosen,,DE,10.03017,50.094761,"Wasserlosen,DE"
2813725.0,Wasserlos,,DE,9.07385,50.071899,"Wasserlos,DE"
2813727.0,Wasserloh,,DE,12.13333,50.349998,"Wasserloh,DE"
2813728.0,Wasserliesch,,DE,6.55,49.716671,"Wasserliesch,DE"
2813732.0,Wasserleben,,DE,10.76667,51.916672,"Wasserleben,DE"
2813739.0,Wasserhorst,,DE,8.75,53.166672,"Wasserhorst,DE"
2813746.0,Wasserfuhr,,DE,7.53333,51.033329,"Wasserfuhr,DE"
2813755.0,Wasserburg am Inn,,DE,12.2313,48.060532,"Wasserburg am Inn,DE"
2813758.0,Wasserburg,,DE,10.2693,48.441051,"Wasserburg,DE"
2813765.0,Wasserberndorf,,DE,10.53333,49.76667,"Wasserberndorf,DE"
2813786.0,Wassenberg,,DE,6.15,51.099998,"Wassenberg,DE"
2813787.0,Wassenach,,DE,7.28333,50.433331,"Wassenach,DE"
2813788.0,Wassel,,DE,9.93333,52.316669,"Wassel,DE"
2813801.0,Wasenstein,,DE,11.56667,47.683331,"Wasenstein,DE"
2813810.0,Wasenhäuser,,DE,8.6,48.25,"Wasenhäuser,DE"
2813815.0,Wasenberg,,DE,9.18333,50.866669,"Wasenberg,DE"
2813819.0,Wasenbach,,DE,7.96667,50.316669,"Wasenbach,DE"
2813828.0,Wasdow,,DE,12.76792,53.995659,"Wasdow,DE"
2813835.0,Waschow,,DE,11.01173,53.521641,"Waschow,DE"
2813847.0,Wäschenbeuren,,DE,9.68735,48.759911,"Wäschenbeuren,DE"
2813848.0,Waschenbach,,DE,8.70722,49.80444,"Waschenbach,DE"
2813858.0,Wasch,,DE,7.76667,49.466671,"Wasch,DE"
2813860.0,Wasbüttel,,DE,10.59357,52.413311,"Wasbüttel,DE"
2813861.0,Wasbuck,,DE,10.7466,54.278759,"Wasbuck,DE"
2813864.0,Wasbek,,DE,9.9,54.066669,"Wasbek,DE"
2813872.0,Warzenried,,DE,12.97022,49.29496,"Warzenried,DE"
2813874.0,Warzenbach,,DE,8.63333,50.883331,"Warzenbach,DE"
2813877.0,Warza,,DE,10.68333,51.0,"Warza,DE"
2813888.0,Wartmannsroth,,DE,9.78333,50.166672,"Wartmannsroth,DE"
2813914.0,Warthausen,,DE,9.8,48.133331,"Warthausen,DE"
2813930.0,Wartenburg,,DE,12.78333,51.816669,"Wartenburg,DE"
2813931.0,Wartenberg-Rohrbach,,DE,7.85,49.533329,"Wartenberg-Rohrbach,DE"
2813935.0,Wartenberg,,DE,11.98333,48.400002,"Wartenberg,DE"
2813974.0,Wartberg,,DE,13.45,48.783329,"Wartberg,DE"
2814005.0,Warstein,,DE,8.36667,51.450001,"Warstein,DE"
2814011.0,Warsow,,DE,11.3,53.533329,"Warsow,DE"
2814013.0,Warsleben,,DE,11.11667,52.099998,"Warsleben,DE"
2814017.0,Warsingsfehn,,DE,7.48333,53.316669,"Warsingsfehn,DE"
2814024.0,Warringholz,,DE,9.46667,54.083328,"Warringholz,DE"
2814025.0,Warrenzin,,DE,12.94807,53.89938,"Warrenzin,DE"
2814031.0,Warpe,,DE,9.1,52.73333,"Warpe,DE"
2814042.0,Warnow,,DE,11.2,53.883331,"Warnow,DE"
2814047.0,Warnkenhagen,,DE,12.45,53.849998,"Warnkenhagen,DE"
2814053.0,Warngau,,DE,11.72173,47.832169,"Warngau,DE"
2814055.0,Warnemünde,,DE,12.08402,54.176701,"Warnemünde,DE"
2814062.0,Warnau,,DE,10.16667,54.183331,"Warnau,DE"
2814065.0,Warmsroth,,DE,7.78333,49.950001,"Warmsroth,DE"
2814066.0,Warmsen,,DE,8.84949,52.456951,"Warmsen,DE"
2814071.0,Warmkammer,,DE,9.96667,53.98333,"Warmkammer,DE"
2814072.0,Warmisried,,DE,10.5,47.966671,"Warmisried,DE"
2814077.0,Warmensteinach,,DE,11.78333,49.98333,"Warmensteinach,DE"
2814081.0,Warmeloh,,DE,9.60102,52.623581,"Warmeloh,DE"
2814095.0,Warlow,,DE,11.4,53.349998,"Warlow,DE"
2814096.0,Warlitz,,DE,11.14943,53.37846,"Warlitz,DE"
2814097.0,Warlin,,DE,13.4,53.566669,"Warlin,DE"
2814107.0,Warin,,DE,11.7,53.799999,"Warin,DE"
2814108.0,Wargolshausen,,DE,10.35,50.366669,"Wargolshausen,DE"
2814113.0,Warferdonn,,DE,9.15,53.966671,"Warferdonn,DE"
2814117.0,Warf,,DE,8.9,53.133331,"Warf,DE"
2814127.0,Warendorf,,DE,7.98333,51.950001,"Warendorf,DE"
2814131.0,Waren,,DE,12.68333,53.51667,"Waren,DE"
2814133.0,Wardow,,DE,12.41667,53.933331,"Wardow,DE"
2814142.0,Warder,,DE,9.88333,54.216671,"Warder,DE"
2814146.0,Wardenburg,,DE,8.2,53.066669,"Wardenburg,DE"
2814148.0,Warden,,DE,6.21667,50.849998,"Warden,DE"
2814153.0,Warburg,,DE,9.16667,51.5,"Warburg,DE"
2814154.0,Warbsen,,DE,9.51667,51.900002,"Warbsen,DE"
2814157.0,Warberg,,DE,10.91972,52.181198,"Warberg,DE"
2814174.0,Wapelfeld,,DE,9.6,54.083328,"Wapelfeld,DE"
2814181.0,Wanzleben,,DE,11.45,52.049999,"Wanzleben,DE"
2814183.0,Wanzka,,DE,13.23333,53.416672,"Wanzka,DE"
2814187.0,Wansleben,,DE,11.75,51.466671,"Wansleben,DE"
2814192.0,Wansdorf,,DE,13.08695,52.639938,"Wansdorf,DE"
2814195.0,Wannweil,,DE,9.15,48.51667,"Wannweil,DE"
2814196.0,Wannsee,,DE,13.15531,52.419151,"Wannsee,DE"
2814226.0,Wanne-Eickel,,DE,7.16667,51.533329,"Wanne-Eickel,DE"
2814241.0,Wanna,,DE,8.8,53.75,"Wanna,DE"
2814244.0,Wankum,,DE,6.3,51.400002,"Wankum,DE"
2814246.0,Wankendorf,,DE,10.21667,54.116669,"Wankendorf,DE"
2814266.0,Wangerooge,,DE,7.9,53.799999,"Wangerooge,DE"
2814270.0,Wangen,,DE,9.83333,47.683331,"Wangen,DE"
2814273.0,Wangenheim,,DE,10.61667,51.01667,"Wangenheim,DE"
2814287.0,Wangels,,DE,10.76667,54.26667,"Wangels,DE"
2814288.0,Wangelnstedt,,DE,9.68333,51.866669,"Wangelnstedt,DE"
2814290.0,Wangelist,,DE,9.34713,52.087471,"Wangelist,DE"
2814291.0,Wangelin,,DE,12.18384,53.394489,"Wangelin,DE"
2814292.0,Wangelau,,DE,10.55,53.450001,"Wangelau,DE"
2814294.0,Wang,,DE,11.95,48.5,"Wang,DE"
2814297.0,Wanfried,,DE,10.16667,51.183331,"Wanfried,DE"
2814305.0,Wandlitz,,DE,13.45799,52.741959,"Wandlitz,DE"
2814312.0,Wanderup,,DE,9.33333,54.683331,"Wanderup,DE"
2814313.0,Wandersleben,,DE,10.85,50.900002,"Wandersleben,DE"
2814314.0,Wanderath,,DE,7.05,50.349998,"Wanderath,DE"
2814345.0,Wambach,,DE,8.1,50.099998,"Wambach,DE"
2814362.0,Waltrop,,DE,7.4,51.633331,"Waltrop,DE"
2814366.0,Waltringen,,DE,7.91667,51.5,"Waltringen,DE"
2814372.0,Walting,,DE,11.3,48.916672,"Walting,DE"
2814374.0,Walthersdorf,,DE,12.96667,50.549999,"Walthersdorf,DE"
2814379.0,Waltersleben,,DE,11.03333,50.916672,"Waltersleben,DE"
2814388.0,Waltershof,,DE,9.91667,53.533329,"Waltershof,DE"
2814392.0,Waltershausen,,DE,10.56667,50.900002,"Waltershausen,DE"
2814406.0,Waltersdorf,,DE,11.75,50.833328,"Waltersdorf,DE"
2814415.0,Walterschen,,DE,7.56667,50.683331,"Walterschen,DE"
2814416.0,Walterscheid,,DE,7.41667,50.883331,"Walterscheid,DE"
2814421.0,Waltersberg,,DE,11.2,47.716671,"Waltersberg,DE"
2814432.0,Walternienburg,,DE,11.93333,51.966671,"Walternienburg,DE"
2814445.0,Waltenhofen,,DE,10.3,47.666672,"Waltenhofen,DE"
2814448.0,Waltenhausen,,DE,10.36457,48.190472,"Waltenhausen,DE"
2814459.0,Walsum,,DE,6.7,51.533329,"Walsum,DE"
2814462.0,Walsrode,,DE,9.6,52.866669,"Walsrode,DE"
2814463.0,Walsmühlen,,DE,11.26667,53.566669,"Walsmühlen,DE"
2814465.0,Walsleben,,DE,12.66449,52.93829,"Walsleben,DE"
2814469.0,Walsheim,,DE,8.12694,49.237221,"Walsheim,DE"
2814471.0,Walshausen,,DE,7.48333,49.216671,"Walshausen,DE"
2814473.0,Walsen,,DE,8.49329,52.718201,"Walsen,DE"
2814476.0,Walsdorf,,DE,6.71667,50.283329,"Walsdorf,DE"
2814479.0,Walschleben,,DE,10.93333,51.066669,"Walschleben,DE"
2814486.0,Walpertskirchen,,DE,11.97527,48.2584,"Walpertskirchen,DE"
2814488.0,Walpertshofen,,DE,9.91667,48.183331,"Walpertshofen,DE"
2814499.0,Walpernhain,,DE,11.95,51.01667,"Walpernhain,DE"
2814502.0,Walow,,DE,12.46622,53.420479,"Walow,DE"
2814510.0,Wallwitzhafen,,DE,12.25,51.833328,"Wallwitzhafen,DE"
2814512.0,Wallwitz,,DE,11.91667,51.583328,"Wallwitz,DE"
2814518.0,Wallstawe,,DE,11.01667,52.799999,"Wallstawe,DE"
2814522.0,Wallscheid,,DE,6.88333,50.099998,"Wallscheid,DE"
2814526.0,Wallsbüll,,DE,9.23333,54.76667,"Wallsbüll,DE"
2814528.0,Wallroth,,DE,7.4,50.700001,"Wallroth,DE"
2814530.0,Wallrode,,DE,10.49143,51.460529,"Wallrode,DE"
2814535.0,Wallrabenstein,,DE,8.23333,50.26667,"Wallrabenstein,DE"
2814549.0,Wallmoden,,DE,10.26667,52.01667,"Wallmoden,DE"
2814553.0,Wallmerod,,DE,7.95,50.48333,"Wallmerod,DE"
2814554.0,Wallmering,,DE,12.75,49.200001,"Wallmering,DE"
2814557.0,Wallmenroth,,DE,7.83333,50.799999,"Wallmenroth,DE"
2814558.0,Wallkofen,,DE,12.31667,48.849998,"Wallkofen,DE"
2814559.0,Wallitz,,DE,12.76667,53.116669,"Wallitz,DE"
2814564.0,Wallichen,,DE,11.15,51.01667,"Wallichen,DE"
2814570.0,Wallhausen,,DE,11.2076,51.46117,"Wallhausen,DE"
2814577.0,Wallhalben,,DE,7.53333,49.316669,"Wallhalben,DE"
2814582.0,Wallgau,,DE,11.28333,47.51667,"Wallgau,DE"
2814588.0,Walleshausen,,DE,10.98333,48.150002,"Walleshausen,DE"
2814591.0,Wallertheim,,DE,8.05139,49.83556,"Wallertheim,DE"
2814592.0,Wallerstein,,DE,10.46667,48.883331,"Wallerstein,DE"
2814593.0,Wallerstädten,,DE,8.45083,49.90361,"Wallerstädten,DE"
2814596.0,Wallersheim,,DE,6.53333,50.200001,"Wallersheim,DE"
2814598.0,Wallersdorf,,DE,10.61667,49.26667,"Wallersdorf,DE"
2814607.0,Wallernhausen,,DE,9.01667,50.400002,"Wallernhausen,DE"
2814612.0,Wallerfing,,DE,12.88333,48.683331,"Wallerfing,DE"
2814613.0,Wallerfangen,,DE,6.71667,49.333328,"Wallerfangen,DE"
2814615.0,Wallerdorf,,DE,11.0,48.616669,"Wallerdorf,DE"
2814617.0,Waller,,DE,11.50217,49.424492,"Waller,DE"
2814623.0,Wallenstein,,DE,9.48333,50.950001,"Wallenstein,DE"
2814625.0,Wallenstedt,,DE,9.8,52.066669,"Wallenstedt,DE"
2814627.0,Wallensen,,DE,9.62059,52.01722,"Wallensen,DE"
2814632.0,Wallenhorst,,DE,8.01667,52.349998,"Wallenhorst,DE"
2814637.0,Wallenfels,,DE,11.46667,50.26667,"Wallenfels,DE"
2814640.0,Wallendorf,,DE,12.08333,51.366669,"Wallendorf,DE"
2814650.0,Wallenborn,,DE,6.71667,50.150002,"Wallenborn,DE"
2814655.0,Wallen,,DE,9.26667,54.283329,"Wallen,DE"
2814662.0,Walle,,DE,8.96667,54.166672,"Walle,DE"
2814667.0,Walldürn,,DE,9.36667,49.583328,"Walldürn,DE"
2814668.0,Walldorf,,DE,10.38333,50.616669,"Walldorf,DE"
2814685.0,Wallbach,,DE,10.4,50.633331,"Wallbach,DE"
2814691.0,Wallau,,DE,8.36667,50.066669,"Wallau,DE"
2814693.0,Wallach,,DE,6.56667,51.583328,"Wallach,DE"
2814707.0,Walksfelde,,DE,10.58333,53.633331,"Walksfelde,DE"
2814714.0,Walkes,,DE,9.95,50.633331,"Walkes,DE"
2814718.0,Walkertshofen,,DE,10.58333,48.23333,"Walkertshofen,DE"
2814725.0,Walkersbrunn,,DE,11.20914,49.6539,"Walkersbrunn,DE"
2814733.0,Walkenried,,DE,10.61667,51.583328,"Walkenried,DE"
2814738.0,Walkendorf,,DE,12.55136,53.952148,"Walkendorf,DE"
2814746.0,Walheim,,DE,6.18333,50.700001,"Walheim,DE"
2814748.0,Walhausen,,DE,7.28333,50.033329,"Walhausen,DE"
2814762.0,Waldweiler,,DE,6.8,49.616669,"Waldweiler,DE"
2814765.0,Waldthurn,,DE,12.32919,49.672211,"Waldthurn,DE"
2814775.0,Waldstetten,,DE,9.82135,48.766151,"Waldstetten,DE"
2814787.0,Waldsieversdorf,,DE,14.06667,52.549999,"Waldsieversdorf,DE"
2814788.0,Waldsiedlung,,DE,13.05,53.099998,"Waldsiedlung,DE"
2814791.0,Waldshut-Tiengen,,DE,8.21717,47.62323,"Waldshut-Tiengen,DE"
2814795.0,Waldsee,,DE,8.44028,49.395279,"Waldsee,DE"
2814815.0,Waldsassen,,DE,12.30278,50.005001,"Waldsassen,DE"
2814821.0,Waldrohrbach,,DE,7.96667,49.166672,"Waldrohrbach,DE"
2814830.0,Waldrand,,DE,14.65,51.533329,"Waldrand,DE"
2814831.0,Waldram,,DE,11.45,47.900002,"Waldram,DE"
2814832.0,Waldrach,,DE,6.74543,49.746231,"Waldrach,DE"
2814840.0,Waldorf,,DE,7.23333,50.48333,"Waldorf,DE"
2814843.0,Waldniel,,DE,6.26667,51.23333,"Waldniel,DE"
2814846.0,Waldmünchen,,DE,12.70417,49.378609,"Waldmünchen,DE"
2814847.0,Waldmühlen,,DE,8.06667,50.583328,"Waldmühlen,DE"
2814848.0,Waldmühle,,DE,9.31233,48.838661,"Waldmühle,DE"
2814851.0,Waldmohr,,DE,7.33333,49.383331,"Waldmohr,DE"
2814853.0,Wald-Michelbach,,DE,8.83167,49.57,"Wald-Michelbach,DE"
2814860.0,Waldmannshausen,,DE,8.06667,50.51667,"Waldmannshausen,DE"
2814866.0,Waldleiningen,,DE,7.88333,49.400002,"Waldleiningen,DE"
2814871.0,Waldlaubersheim,,DE,7.83333,49.933331,"Waldlaubersheim,DE"
2814874.0,Waldkraiburg,,DE,12.39893,48.208542,"Waldkraiburg,DE"
2814878.0,Waldkirchen,,DE,12.36667,50.599998,"Waldkirchen,DE"
2814883.0,Waldkirch,,DE,7.96371,48.095852,"Waldkirch,DE"
2814885.0,Waldkatzenbach,,DE,9.05722,49.465561,"Waldkatzenbach,DE"
2814888.0,Waldkappel,,DE,9.88333,51.150002,"Waldkappel,DE"
2814914.0,Waldhof-Falkenstein,,DE,6.18333,49.966671,"Waldhof-Falkenstein,DE"
2814956.0,Waldheim,,DE,13.01667,51.066669,"Waldheim,DE"
2814976.0,Waldhausen,,DE,8.25,50.5,"Waldhausen,DE"
2815002.0,Waldhambach,,DE,7.98333,49.166672,"Waldhambach,DE"
2815010.0,Waldgrehweiler,,DE,7.73333,49.666672,"Waldgrehweiler,DE"
2815013.0,Waldgirmes,,DE,8.55,50.583328,"Waldgirmes,DE"
2815019.0,Waldfrieden,,DE,13.95,51.633331,"Waldfrieden,DE"
2815030.0,Waldfriede,,DE,7.55,49.849998,"Waldfriede,DE"
2815032.0,Waldfischbach-Burgalben,,DE,7.66667,49.283329,"Waldfischbach-Burgalben,DE"
2815035.0,Waldfeucht,,DE,5.98815,51.066101,"Waldfeucht,DE"
2815036.0,Waldfenster,,DE,9.95,50.26667,"Waldfenster,DE"
2815045.0,Waldesch,,DE,7.15,50.366669,"Waldesch,DE"
2815048.0,Waldershof,,DE,12.06667,49.98333,"Waldershof,DE"
2815052.0,Waldernbach,,DE,8.15,50.533329,"Waldernbach,DE"
2815059.0,Walderbach,,DE,12.38333,49.183331,"Walderbach,DE"
2815074.0,Waldenburg,,DE,12.6,50.883331,"Waldenburg,DE"
2815076.0,Waldenbuch,,DE,9.13256,48.638302,"Waldenbuch,DE"
2815101.0,Waldeck,,DE,9.06286,51.206181,"Waldeck,DE"
2815114.0,Walddrehna,,DE,13.63333,51.783329,"Walddrehna,DE"
2815127.0,Waldbüttelbrunn,,DE,9.84667,49.78833,"Waldbüttelbrunn,DE"
2815128.0,Waldburg,,DE,9.71667,47.76667,"Waldburg,DE"
2815132.0,Waldbrunn,,DE,9.80361,49.75861,"Waldbrunn,DE"
2815137.0,Waldbröl,,DE,7.61667,50.883331,"Waldbröl,DE"
2815138.0,Waldbreitbach,,DE,7.41667,50.549999,"Waldbreitbach,DE"
2815139.0,Waldböckelheim,,DE,7.71667,49.816669,"Waldböckelheim,DE"
2815166.0,Waldaubach,,DE,8.13333,50.650002,"Waldaubach,DE"
2815171.0,Waldau,,DE,10.83333,50.5,"Waldau,DE"
2815180.0,Waldaschaff,,DE,9.30194,49.975281,"Waldaschaff,DE"
2815183.0,Wald-Amorbach,,DE,9.02444,49.848331,"Wald-Amorbach,DE"
2815186.0,Waldalgesheim,,DE,7.83333,49.950001,"Waldalgesheim,DE"
2815188.0,Waldacker,,DE,8.81667,50.0,"Waldacker,DE"
2815191.0,Walda,,DE,13.5,51.316669,"Walda,DE"
2815198.0,Wald,,DE,12.35,49.150002,"Wald,DE"
2815218.0,Walchum,,DE,7.28325,52.92717,"Walchum,DE"
2815220.0,Walchstadt,,DE,11.41505,47.94487,"Walchstadt,DE"
2815221.0,Walchsing,,DE,13.08333,48.616669,"Walchsing,DE"
2815230.0,Walchenfeld,,DE,10.56667,50.166672,"Walchenfeld,DE"
2815239.0,Walburger,,DE,8.11667,51.583328,"Walburger,DE"
2815264.0,Wakendorf,,DE,10.28333,54.25,"Wakendorf,DE"
2815270.0,Waizenried,,DE,10.4,47.816669,"Waizenried,DE"
2815272.0,Waizenhofen,,DE,11.23333,49.066669,"Waizenhofen,DE"
2815279.0,Waizendorf,,DE,10.53333,49.166672,"Waizendorf,DE"
2815297.0,Waischenfeld,,DE,11.3481,49.846451,"Waischenfeld,DE"
2815300.0,Wain,,DE,10.0209,48.189041,"Wain,DE"
2815303.0,Waigolshausen,,DE,10.13333,49.950001,"Waigolshausen,DE"
2815305.0,Waigandshain,,DE,8.08333,50.650002,"Waigandshain,DE"
2815315.0,Waidhofen,,DE,11.33333,48.583328,"Waidhofen,DE"
2815317.0,Waidhaus,,DE,12.49523,49.642181,"Waidhaus,DE"
2815321.0,Waidach,,DE,11.41667,49.73333,"Waidach,DE"
2815328.0,Waibstadt,,DE,8.91917,49.298061,"Waibstadt,DE"
2815330.0,Waiblingen,,DE,9.31641,48.832409,"Waiblingen,DE"
2815331.0,Waibling,,DE,12.63333,48.716671,"Waibling,DE"
2815345.0,Wahrenholz,,DE,10.6,52.616669,"Wahrenholz,DE"
2815350.0,Wahrenberg,,DE,11.66667,52.98333,"Wahrenberg,DE"
2815353.0,Wahren,,DE,12.33333,51.366669,"Wahren,DE"
2815369.0,Wahnwegen,,DE,7.38333,49.48333,"Wahnwegen,DE"
2815372.0,Wahnscheid,,DE,7.93333,50.51667,"Wahnscheid,DE"
2815373.0,Wahns,,DE,10.3,50.633331,"Wahns,DE"
2815378.0,Wahnebergen,,DE,9.23333,52.900002,"Wahnebergen,DE"
2815382.0,Wahn,,DE,7.3,50.833328,"Wahn,DE"
2815390.0,Wahlstorf (Dorf),,DE,10.29462,54.17836,"Wahlstorf (Dorf),DE"
2815391.0,Wahlstorf,,DE,12.09629,53.361309,"Wahlstorf,DE"
2815392.0,Wahlstedt,,DE,10.21667,53.950001,"Wahlstedt,DE"
2815399.0,Wahlsdorf,,DE,13.33333,51.950001,"Wahlsdorf,DE"
2815410.0,Wahlrod,,DE,7.71667,50.650002,"Wahlrod,DE"
2815412.0,Wahlitz,,DE,11.78333,52.099998,"Wahlitz,DE"
2815417.0,Wahlheimer Hof,,DE,8.23333,49.866669,"Wahlheimer Hof,DE"
2815418.0,Wahlheim,,DE,8.10611,49.717781,"Wahlheim,DE"
2815419.0,Wahlhausen,,DE,9.98333,51.299999,"Wahlhausen,DE"
2815421.0,Wahles,,DE,10.38333,50.76667,"Wahles,DE"
2815436.0,Wahlenau,,DE,7.25,49.900002,"Wahlenau,DE"
2815440.0,Wahlen,,DE,6.56667,50.48333,"Wahlen,DE"
2815444.0,Wahle,,DE,10.36182,52.270889,"Wahle,DE"
2815456.0,Wahlbach,,DE,7.6,50.0,"Wahlbach,DE"
2815484.0,Waging am See,,DE,12.73333,47.933331,"Waging am See,DE"
2815487.0,Waghäusel,,DE,8.50722,49.25639,"Waghäusel,DE"
2815488.0,Waggum,,DE,10.55803,52.326321,"Waggum,DE"
2815490.0,Wagesenberg,,DE,11.06667,48.566669,"Wagesenberg,DE"
2815491.0,Wagersrott,,DE,9.8,54.666672,"Wagersrott,DE"
2815507.0,Wagenhoff,,DE,10.51667,52.533329,"Wagenhoff,DE"
2815509.0,Wagenhofen,,DE,10.45,48.683331,"Wagenhofen,DE"
2815513.0,Wagenhausen,,DE,6.98333,50.150002,"Wagenhausen,DE"
2815523.0,Wagenfeld,,DE,8.58333,52.549999,"Wagenfeld,DE"
2815535.0,Wagenbach,,DE,13.2,50.633331,"Wagenbach,DE"
2815543.0,Waffensen,,DE,9.31667,53.116669,"Waffensen,DE"
2815544.0,Waffenschmiede,,DE,12.38333,49.01667,"Waffenschmiede,DE"
2815552.0,Waffenbrunn,,DE,12.66667,49.26667,"Waffenbrunn,DE"
2815559.0,Wadgassen,,DE,6.78333,49.26667,"Wadgassen,DE"
2815563.0,Wadersloh,,DE,8.25,51.73333,"Wadersloh,DE"
2815565.0,Wadern,,DE,6.88333,49.533329,"Wadern,DE"
2815568.0,Wadendorf,,DE,12.18333,51.683331,"Wadendorf,DE"
2815574.0,Wadelsdorf,,DE,14.48333,51.616669,"Wadelsdorf,DE"
2815579.0,Waddeweitz,,DE,10.96667,53.0,"Waddeweitz,DE"
2815580.0,Waddewarden,,DE,7.95,53.599998,"Waddewarden,DE"
2815594.0,Wackersleben,,DE,11.01667,52.066669,"Wackersleben,DE"
2815598.0,Wackersdorf,,DE,12.18333,49.316669,"Wackersdorf,DE"
2815600.0,Wackersberg,,DE,11.55,47.73333,"Wackersberg,DE"
2815603.0,Wackerow,,DE,13.34513,54.1035,"Wackerow,DE"
2815605.0,Wackernheim,,DE,8.11667,49.974442,"Wackernheim,DE"
2815606.0,Wackerling,,DE,12.65,49.25,"Wackerling,DE"
2815623.0,Wacken,,DE,9.37597,54.020779,"Wacken,DE"
2815626.0,Wachtum,,DE,7.71667,52.783329,"Wachtum,DE"
2815627.0,Wachtnitz,,DE,13.35,51.183331,"Wachtnitz,DE"
2815642.0,Wächtersbach,,DE,9.29564,50.255112,"Wächtersbach,DE"
2815651.0,Wachtendonk,,DE,6.33894,51.409161,"Wachtendonk,DE"
2815678.0,Wachtberg,,DE,7.1,50.633331,"Wachtberg,DE"
2815689.0,Wachstedt,,DE,10.25,51.299999,"Wachstedt,DE"
2815694.0,Wachsenberg,,DE,10.23333,49.383331,"Wachsenberg,DE"
2815696.0,Wachow,,DE,12.75736,52.533661,"Wachow,DE"
2815717.0,Wachholz,,DE,8.80988,53.438969,"Wachholz,DE"
2815735.0,Wachenroth,,DE,10.71667,49.75,"Wachenroth,DE"
2815739.0,Wachenheim,,DE,8.17722,49.44722,"Wachenheim,DE"
2815744.0,Wachendorf,,DE,6.73333,50.599998,"Wachendorf,DE"
2815748.0,Wachenbuchen,,DE,8.86667,50.166672,"Wachenbuchen,DE"
2815782.0,Wachau,,DE,13.9,51.166672,"Wachau,DE"
2815784.0,Wabern,,DE,9.35,51.099998,"Wabern,DE"
2815793.0,Waat,,DE,6.49575,51.145432,"Waat,DE"
2815794.0,Waaswitz,,DE,12.16667,50.916672,"Waaswitz,DE"
2815795.0,Waase,,DE,13.18333,54.466671,"Waase,DE"
2815800.0,Waalhaupten,,DE,10.78333,47.966671,"Waalhaupten,DE"
2815803.0,Waal,,DE,10.78333,48.0,"Waal,DE"
2815804.0,Waakirchen,,DE,11.67315,47.772499,"Waakirchen,DE"
2815807.0,Waake,,DE,10.05713,51.55637,"Waake,DE"
2815812.0,Waabs,,DE,9.98333,54.533329,"Waabs,DE"
2815822.0,Vreschen-Bokel,,DE,7.75,53.216671,"Vreschen-Bokel,DE"
2815823.0,Vrees,,DE,7.76667,52.883331,"Vrees,DE"
2815824.0,Vreden,,DE,6.828,52.037922,"Vreden,DE"
2815841.0,Vossum,,DE,6.26667,51.450001,"Vossum,DE"
2815871.0,Voßheide,,DE,8.4,52.116669,"Voßheide,DE"
2815886.0,Vossenack,,DE,6.36667,50.683331,"Vossenack,DE"
2815957.0,Vorwohle,,DE,9.73333,51.883331,"Vorwohle,DE"
2815965.0,Russow,,DE,11.64861,54.059582,"Russow,DE"
2815982.0,Vorwerk Bliesendorf,,DE,12.8413,52.33366,"Vorwerk Bliesendorf,DE"
2815987.0,Vorwerk,,DE,9.15,53.183331,"Vorwerk,DE"
2816010.0,Vörstetten,,DE,7.85,48.066669,"Vörstetten,DE"
2816043.0,Vorra,,DE,11.49419,49.557178,"Vorra,DE"
2816045.0,Vorpochten,,DE,7.01667,50.216671,"Vorpochten,DE"
2816052.0,Vornhagen,,DE,9.25,52.349998,"Vornhagen,DE"
2816057.0,Vornbach,,DE,13.44109,48.48666,"Vornbach,DE"
2816062.0,Vormwald,,DE,9.26667,50.066669,"Vormwald,DE"
2816070.0,Vormholz,,DE,11.43333,47.716671,"Vormholz,DE"
2816080.0,Vorland,,DE,12.90816,54.119701,"Vorland,DE"
2816126.0,Vordorfermühle,,DE,11.91667,50.049999,"Vordorfermühle,DE"
2816127.0,Vordorf,,DE,10.52035,52.365219,"Vordorf,DE"
2816141.0,Vorderweidenthal,,DE,7.88333,49.133331,"Vorderweidenthal,DE"
2816151.0,Vordertodtmoos,,DE,8.0,47.73333,"Vordertodtmoos,DE"
2816214.0,Vorderrandsberg,,DE,12.31667,49.26667,"Vorderrandsberg,DE"
2816256.0,Vorderhindelang,,DE,10.35,47.5,"Vorderhindelang,DE"
2816280.0,Vorderhagen,,DE,7.76667,51.133331,"Vorderhagen,DE"
2816405.0,Vorderdorf,,DE,8.08333,47.933331,"Vorderdorf,DE"
2816455.0,Vor dem Jüterborger Tor,,DE,13.16667,52.083328,"Vor dem Jüterborger Tor,DE"
2816466.0,Vorburg,,DE,10.3,53.73333,"Vorburg,DE"
2816483.0,Vorberg,,DE,12.58333,48.283329,"Vorberg,DE"
2816494.0,Vorbeck,,DE,12.07071,53.90778,"Vorbeck,DE"
2816503.0,Vorbach,,DE,11.75,49.816669,"Vorbach,DE"
2816508.0,Voosen,,DE,6.38333,51.150002,"Voosen,DE"
2816524.0,Volxheim,,DE,7.93333,49.816669,"Volxheim,DE"
2816527.0,Voltlage,,DE,7.75,52.433331,"Voltlage,DE"
2816531.0,Völschow,,DE,13.33569,53.877831,"Völschow,DE"
2816533.0,Volpriehausen,,DE,9.75,51.666672,"Volpriehausen,DE"
2816534.0,Völpke,,DE,11.09877,52.138649,"Völpke,DE"
2816535.0,Volpertshausen,,DE,8.54204,50.50491,"Volpertshausen,DE"
2816547.0,Vollstedt,,DE,9.03333,54.616669,"Vollstedt,DE"
2816548.0,Vollrathsruhe,,DE,12.48819,53.64362,"Vollrathsruhe,DE"
2816553.0,Vollochhof,,DE,9.56667,48.066669,"Vollochhof,DE"
2816557.0,Vollmersweiler,,DE,8.07722,49.064999,"Vollmersweiler,DE"
2816559.0,Vollmershain,,DE,12.3,50.849998,"Vollmershain,DE"
2816561.0,Vollmersdorf,,DE,9.39944,49.635559,"Vollmersdorf,DE"
2816562.0,Vollmersbach,,DE,7.31667,49.73333,"Vollmersbach,DE"
2816574.0,Völling,,DE,12.5,49.099998,"Völling,DE"
2816576.0,Vollerwiek,,DE,8.79833,54.291279,"Vollerwiek,DE"
2816577.0,Vollersroda,,DE,11.33094,50.936039,"Vollersroda,DE"
2816578.0,Vollersode,,DE,8.91667,53.333328,"Vollersode,DE"
2816582.0,Völlenerfehn,,DE,7.41667,53.099998,"Völlenerfehn,DE"
2816583.0,Vollenborn,,DE,10.5,51.349998,"Vollenborn,DE"
2816593.0,Volkstorf,,DE,10.54542,53.205002,"Volkstorf,DE"
2816595.0,Volkstedt,,DE,11.31667,50.700001,"Volkstedt,DE"
2816600.0,Völkshagen,,DE,12.39043,54.15937,"Völkshagen,DE"
2816605.0,Volkse,,DE,10.37676,52.433411,"Volkse,DE"
2816607.0,Volksdorf,,DE,10.18417,53.649719,"Volksdorf,DE"
2816616.0,Volkmarsen,,DE,9.11814,51.408951,"Volkmarsen,DE"
2816617.0,Volkmarsdorf,,DE,10.88642,52.363441,"Volkmarsdorf,DE"
2816620.0,Volkmaritz,,DE,11.7,51.533329,"Volkmaritz,DE"
2816625.0,Volkmannsdorf,,DE,11.73168,50.611019,"Volkmannsdorf,DE"
2816630.0,Völklingen,,DE,6.85873,49.251621,"Völklingen,DE"
2816634.0,Volkhoven,,DE,6.88333,51.01667,"Volkhoven,DE"
2816639.0,Volkesfeld,,DE,7.15,50.400002,"Volkesfeld,DE"
2816640.0,Volkerzen,,DE,7.68333,50.716671,"Volkerzen,DE"
2816646.0,Volkertshausen,,DE,8.86667,47.816669,"Volkertshausen,DE"
2816652.0,Völkersweiler,,DE,7.93333,49.166672,"Völkersweiler,DE"
2816653.0,Völkersleier,,DE,9.78333,50.183331,"Völkersleier,DE"
2816660.0,Völkershausen,,DE,10.05,50.799999,"Völkershausen,DE"
2816663.0,Volkershausen,,DE,10.3,50.166672,"Volkershausen,DE"
2816666.0,Volkersgau,,DE,10.93333,49.316669,"Volkersgau,DE"
2816667.0,Völkersen,,DE,9.23333,53.0,"Völkersen,DE"
2816671.0,Volkersbrunn,,DE,9.26833,49.896389,"Volkersbrunn,DE"
2816674.0,Volkers,,DE,8.51667,53.549999,"Volkers,DE"
2816678.0,Volkerode,,DE,10.06667,51.26667,"Volkerode,DE"
2816687.0,Volkenschwand,,DE,11.88333,48.599998,"Volkenschwand,DE"
2816688.0,Völkenroth,,DE,7.4,50.033329,"Völkenroth,DE"
2816694.0,Volkenrath,,DE,6.28333,50.799999,"Volkenrath,DE"
2816699.0,Volkartshain,,DE,9.28333,50.450001,"Volkartshain,DE"
2816702.0,Volkach,,DE,10.23333,49.866669,"Volkach,DE"
2816734.0,Voigtstedt,,DE,11.31667,51.383331,"Voigtstedt,DE"
2816736.0,Voigtslach,,DE,6.93333,51.066669,"Voigtslach,DE"
2816744.0,Voigtsdorf,,DE,13.65,53.566669,"Voigtsdorf,DE"
